timestamp,timestamp_sample,time_utc_usec,device_id,lat,lon,alt,alt_ellipsoid,s_variance_m_s,c_variance_rad,eph,epv,hdop,vdop,noise_per_ms,jamming_indicator,vel_m_s,vel_n_m_s,vel_e_m_s,vel_d_m_s,cog_rad,timestamp_time_relative,heading,heading_offset,heading_accuracy,rtcm_injection_rate,automatic_gain_control,fix_type,jamming_state,spoofing_state,vel_ned_valid,satellites_used,selected_rtcm_instance,rtcm_crc_failed,rtcm_msg_used
2771041603,0,1695208426800000,8748291,496405377,176059935,561350,561350,0.043273926,15.538214,0.8738832,1.127168,0.64990234,0.9399414,0,0,0.114843376,0.052,0.009000001,0.102000006,0.17137913,0,nan,nan,nan,0.0,0,3,0,0,1,17,0,0,0
2771637508,0,1695208427400000,8748291,496405377,176059935,561360,561360,0.055236816,351.82684,0.876951,1.1301963,0.64990234,0.9399414,0,0,0.05738467,-0.011000001,-0.006,0.056,-2.642246,0,nan,nan,nan,0.0,0,3,0,0,1,17,0,0,0
2772037492,0,1695208427800000,8748291,496405377,176059936,561350,561350,0.024963379,5.3317757,0.87889755,1.1327856,0.64990234,0.9399414,0,0,0.06849088,0.031000001,0.061000004,0.003,1.1006129,0,nan,nan,nan,0.0,0,3,0,0,1,17,0,0,0
2772634355,0,1695208428400000,8748291,496405377,176059939,561360,561360,0.04623413,54.97518,0.88305444,1.1379464,0.64990234,0.9399414,0,0,0.05021952,-0.021000002,0.020000001,0.041,2.38058,0,nan,nan,nan,0.0,0,3,0,0,1,17,0,0,0
2773033983,0,1695208428800000,8748291,496405377,176059938,561350,561350,0.05758667,25.881649,0.88498765,1.140946,0.64990234,0.9399414,0,0,0.04802083,-0.047000002,0.004,-0.009000001,3.056691,0,nan,nan,nan,0.0,0,3,0,0,1,17,0,0,0
2773635812,0,1695208429400000,8748291,496405376,176059937,561330,561330,0.050628662,27.146732,0.888017,1.14607,0.64990234,0.9399414,0,0,0.058189347,-0.032,-0.029000001,0.039,-2.4053352,0,nan,nan,nan,0.0,0,3,0,0,1,17,0,0,0
2774038486,0,1695208429800000,8748291,496405376,176059935,561330,561330,0.053833008,53.142147,0.8910361,1.149898,0.64990234,0.9399414,0,0,0.03221801,-0.023000002,0.022000002,-0.0050000004,2.3784132,0,nan,nan,nan,0.0,0,3,0,0,1,17,0,0,0
2774627164,0,1695208430400000,8748291,496405375,176059929,561330,561330,0.030273438,1.7263591,0.894045,1.1558276,0.64990234,0.9399414,0,0,0.15218739,-0.056,-0.120000005,-0.075,-2.0074234,0,nan,nan,nan,0.0,0,3,0,0,1,17,0,0,0
2775036172,0,1695208430800000,8748291,496405374,176059920,561380,561380,0.027557373,1.6555946,0.89704376,1.1600444,0.64990234,0.9399414,0,0,0.14145318,-0.002,-0.12900001,-0.058000002,-1.586299,0,nan,nan,nan,0.0,0,3,0,0,1,17,0,0,0
2775636079,0,1695208431400000,8748291,496405377,176059910,561560,561560,0.047088623,0.7794968,0.8989469,1.1629871,0.64990234,0.9399414,0,0,0.66136605,0.053000003,-0.24000001,-0.614,-1.3534513,0,nan,nan,nan,0.0,0,3,0,0,1,17,0,0,0
2776036387,0,1695208431800000,8748291,496405380,176059903,561880,561880,0.047088623,15.801551,0.8989469,1.1638266,0.64990234,0.9399414,0,0,0.9316008,-0.008,-0.054,-0.93000007,-1.7178746,0,nan,nan,nan,0.0,0,3,0,0,1,17,0,0,0
2776639548,0,1695208432400000,8748291,496405386,176059906,562480,562480,0.04119873,1.6621774,0.89595443,1.1608859,0.64990234,0.9399414,0,0,1.0656933,0.081,0.135,-1.054,1.0303769,0,nan,nan,nan,0.0,0,3,0,0,1,17,0,0,0
2777040221,0,1695208432800000,8748291,496405392,176059914,562920,562920,0.042022705,0.9135171,0.89486384,1.1600444,0.64990234,0.9399414,0,0,1.2072055,0.124000005,0.17500001,-1.1880001,0.9543409,0,nan,nan,nan,0.0,0,3,0,0,1,17,0,0,0
2777637366,0,1695208433400000,8748291,496405396,176059929,563650,563650,0.049743652,2.28759,0.894045,1.157938,0.64990234,0.9399414,0,0,1.2437725,0.036000002,0.143,-1.235,1.324173,0,nan,nan,nan,0.0,0,3,0,0,1,17,0,0,0
2778043690,0,1695208433800000,8748291,496405399,176059933,564080,564080,0.0501709,1.8174566,0.894045,1.1592023,0.64990234,0.9399414,0,0,1.208476,0.13700001,0.094000004,-1.197,0.60135734,0,nan,nan,nan,0.0,0,3,0,0,1,17,0,0,0
2778628242,0,1695208434400000,8748291,496405397,176059944,564770,564770,0.05429077,2.4062927,0.89595443,1.1600444,0.64990234,0.9399414,0,0,1.2212722,-0.089,0.12100001,-1.212,2.2049768,0,nan,nan,nan,0.0,0,3,0,0,1,17,0,0,0
2779037207,0,1695208434800000,8748291,496405396,176059950,565320,565320,0.044952393,2.5419805,0.89486384,1.157938,0.64990234,0.9399414,0,0,1.3475776,-0.028,0.13000001,-1.3410001,1.78294,0,nan,nan,nan,0.0,0,3,0,0,1,17,0,0,0
2779645478,0,1695208435400000,8748291,496405393,176059954,566110,566110,0.056640625,4.451479,0.89595443,1.1592023,0.64990234,0.9399414,0,0,1.334775,-0.09,0.068,-1.33,2.4945455,0,nan,nan,nan,0.0,0,3,0,0,1,17,0,0,0
2780027723,0,1695208435800000,8748291,496405390,176059952,566690,566690,0.054748535,4.4034843,0.89595443,1.1600444,0.64990234,0.9399414,0,0,1.336659,-0.063,-0.09200001,-1.332,-2.171236,0,nan,nan,nan,0.0,0,3,0,0,1,17,0,0,0
2780639321,0,1695208436400000,8748291,496405385,176059946,567560,567560,0.05618286,1.9472777,0.89704376,1.1608859,0.64990234,0.9399414,0,0,1.3844595,-0.16600001,-0.036000002,-1.3740001,-2.9280322,0,nan,nan,nan,0.0,0,3,0,0,1,17,0,0,0
2781042095,0,1695208436800000,8748291,496405382,176059942,568140,568140,0.05618286,1.9431692,0.8981317,1.1629871,0.64990234,0.9399414,0,0,1.4956969,-0.032,-0.16700001,-1.4860001,-1.7601182,0,nan,nan,nan,0.0,0,3,0,0,1,17,0,0,0
2781638944,0,1695208437400000,8748291,496405379,176059941,569020,569020,0.057128906,26.795916,0.8989469,1.1650845,0.64990234,0.9399414,0,0,1.4477365,0.044000003,0.014,-1.447,0.30805278,0,nan,nan,nan,0.0,0,3,0,0,1,17,0,0,0
2782039294,0,1695208437800000,8748291,496405380,176059943,569600,569600,0.0524292,1.9492581,0.9000326,1.1659224,0.64990234,0.9399414,0,0,1.491047,0.15100001,0.064,-1.4820001,0.4008886,0,nan,nan,nan,0.0,0,3,0,0,1,17,0,0,0
2782641743,0,1695208438400000,8748291,496405384,176059945,570480,570480,0.051971436,5.5901294,0.9011169,1.1680145,0.64990234,0.9399414,0,0,1.5240532,0.096,0.009000001,-1.521,0.09347679,0,nan,nan,nan,0.0,0,3,0,0,1,17,0,0,0
2783045001,0,1695208438800000,8748291,496405385,176059947,571090,571090,0.053833008,4.0111027,0.9011169,1.1688503,0.64990234,0.9399414,0,0,1.5443513,-0.115,-0.014,-1.5400001,-3.0204496,0,nan,nan,nan,0.0,0,3,0,0,1,17,0,0,0
2783642206,0,1695208439400000,8748291,496405383,176059949,572260,572260,0.053833008,11.19189,0.9019294,1.1709372,0.64990234,0.9399414,0,0,2.4789705,-0.047000002,0.051000003,-2.4780002,2.3154008,0,nan,nan,nan,0.0,0,3,0,0,1,17,0,0,0
2784032765,0,1695208439800000,8748291,496405379,176059950,573340,573340,0.05569458,1.3901402,0.90301144,1.1721874,0.64990234,0.9399414,0,0,2.9238594,-0.2,0.008,-2.917,3.101614,0,nan,nan,nan,0.0,0,3,0,0,1,17,0,0,0
2784636925,0,1695208440400000,8748291,496405373,176059951,575000,575000,0.054748535,34.132496,0.90409225,1.1738524,0.64990234,0.9399414,0,0,2.7812884,-0.040000003,-0.002,-2.7810001,-3.0916343,0,nan,nan,nan,0.0,0,3,0,0,1,17,0,0,0
2785038591,0,1695208440800000,8748291,496405371,176059947,576110,576110,0.05569458,2.922066,0.90490204,1.1759305,0.64990234,0.9399414,0,0,2.8403573,-0.108,-0.086,-2.8370001,-2.4691143,0,nan,nan,nan,0.0,0,3,0,0,1,17,0,0,0
2785639778,0,1695208441400000,8748291,496405367,176059943,577800,577800,0.05154419,10.662844,0.9059806,1.1771755,0.64990234,0.9399414,0,0,2.909831,-0.053000003,-0.045,-2.9090002,-2.4376466,0,nan,nan,nan,0.0,0,3,0,0,1,17,0,0,0
2786043618,0,1695208441800000,8748291,496405369,176059943,578930,578930,0.05154419,37.623493,0.9070578,1.1780049,0.64990234,0.9399414,0,0,2.9112356,-0.001,0.037,-2.9110003,1.5978167,0,nan,nan,nan,0.0,0,3,0,0,1,17,0,0,0
2786636729,0,1695208442400000,8748291,496405374,176059943,580660,580660,0.051971436,9.824467,0.9081338,1.1800755,0.64990234,0.9399414,0,0,2.9309025,0.069000006,0.023000002,-2.93,0.32175055,0,nan,nan,nan,0.0,0,3,0,0,1,17,0,0,0
2787039307,0,1695208442800000,8748291,496405380,176059943,581850,581850,0.050628662,1.2158368,0.90893996,1.1800755,0.64990234,0.9399414,0,0,2.948071,0.20400001,0.0050000004,-2.9410002,0.024504898,0,nan,nan,nan,0.0,0,3,0,0,1,17,0,0,0
2787638198,0,1695208443400000,8748291,496405388,176059944,583580,583580,0.05154419,1.7125453,0.90893996,1.1821425,0.64990234,0.9399414,0,0,2.9670765,0.17300001,-0.013,-2.9620001,-0.07500354,0,nan,nan,nan,0.0,0,3,0,0,1,17,0,0,0
2788038573,0,1695208443800000,8748291,496405391,176059942,584750,584750,0.053375244,169.98483,0.91001374,1.1829684,0.64990234,0.9399414,0,0,2.9990523,0.017,-0.0050000004,-2.999,-0.28605145,0,nan,nan,nan,0.0,0,3,0,0,1,17,0,0,0
2788638667,0,1695208444400000,8748291,496405391,176059944,586540,586540,0.0524292,22.19695,0.91108626,1.1850303,0.64990234,0.9399414,0,0,2.8554137,-0.029000001,0.039,-2.855,2.2101822,0,nan,nan,nan,0.0,0,3,0,0,1,17,0,0,0
2789038471,0,1695208444800000,8748291,496405391,176059944,587620,587620,0.0524292,3.6813085,0.9118898,1.1858541,0.64990234,0.9399414,0,0,2.4788744,-0.009000001,0.119,-2.476,1.6462828,0,nan,nan,nan,0.0,0,3,0,0,1,17,0,0,0
2789635213,0,1695208445400000,8748291,496405394,176059950,588920,588920,0.053833008,5.191226,0.91296005,1.1879112,0.64990234,0.9399414,0,0,1.7719287,0.013,0.101,-1.769,1.4427873,0,nan,nan,nan,0.0,0,3,0,0,1,17,0,0,0
2790036966,0,1695208445800000,8748291,496405394,176059952,589560,589560,0.05429077,7.839823,0.9140291,1.1899645,0.64990234,0.9399414,0,0,1.393487,-0.029000001,0.078,-1.391,1.926754,0,nan,nan,nan,0.0,0,3,0,0,1,17,0,0,0
2790638874,0,1695208446400000,8748291,496405393,176059956,590290,590290,0.051971436,179.83195,0.9140291,1.1911949,0.64990234,0.9399414,0,0,0.96514976,0.0,0.017,-0.96500003,1.5707964,0,nan,nan,nan,0.0,0,3,0,0,1,17,0,0,0
2791039546,0,1695208446800000,8748291,496405393,176059953,590650,590650,0.050628662,7.257548,0.9150969,1.1920145,0.64990234,0.9399414,0,0,0.7377432,0.024,-0.080000006,-0.73300004,-1.2793396,0,nan,nan,nan,0.0,0,3,0,0,1,17,0,0,0
2791641193,0,1695208447400000,8748291,496405399,176059938,590990,590990,0.04284668,0.13843437,0.9150969,1.1928334,0.64990234,0.9399414,0,0,0.7086819,0.43,-0.35300002,-0.439,-0.68737364,0,nan,nan,nan,0.0,0,3,0,0,1,17,0,0,0
2792034962,0,1695208447800000,8748291,496405430,176059904,591140,591140,0.040008545,0.016221533,0.9150969,1.1920145,0.64990234,0.9399414,0,0,1.6081359,1.296,-0.887,-0.34600002,-0.60018855,0,nan,nan,nan,0.0,0,3,0,0,1,17,0,0,0
2792638498,0,1695208448400000,8748291,496405548,176059801,591270,591270,0.0440979,0.003723664,0.9150969,1.1928334,0.64990234,0.9399414,0,0,3.4429111,3.0770001,-1.5410001,-0.105000004,-0.46429738,0,nan,nan,nan,0.0,0,3,0,0,1,17,0,0,0
2793036151,0,1695208448800000,8748291,496405679,176059704,591270,591270,0.043670654,0.0020809325,0.91589695,1.1928334,0.64990234,0.9399414,0,0,4.58174,4.15,-1.94,-0.079,-0.43728653,0,nan,nan,nan,0.0,0,3,0,0,1,17,0,0,0
2793628816,0,1695208449400000,8748291,496405942,176059516,591280,591280,0.036865234,0.0009865421,0.91589695,1.1928334,0.64990234,0.9399414,0,0,6.1160254,5.563,-2.5340002,0.194,-0.42742628,0,nan,nan,nan,0.0,0,3,0,0,1,17,0,0,0
2794039216,0,1695208449800000,8748291,496406152,176059376,591210,591210,0.046661377,0.0010924303,0.91589695,1.1920145,0.64990234,0.9399414,0,0,6.536439,6.0150003,-2.5560002,0.108,-0.40181786,0,nan,nan,nan,0.0,0,3,0,0,1,17,0,0,0
2794642172,0,1695208450400000,8748291,496406465,176059180,591210,591210,0.030975342,0.0009481389,0.9140291,1.1911949,0.64990234,0.9399414,0,0,5.715842,5.314,-2.105,0.035,-0.37716004,0,nan,nan,nan,0.0,0,3,0,0,1,17,0,0,0
2795036107,0,1695208450800000,8748291,496406637,176059072,591200,591200,0.029922485,0.0014330334,0.91296005,1.1911949,0.64990234,0.9399414,0,0,4.569633,4.209,-1.779,0.032,-0.39989182,0,nan,nan,nan,0.0,0,3,0,0,1,17,0,0,0
2795640274,0,1695208451400000,8748291,496406829,176058949,591140,591140,0.034210205,0.0030079684,0.9118898,1.1899645,0.64990234,0.9399414,0,0,3.374411,3.1330001,-1.248,0.116000004,-0.37907472,0,nan,nan,nan,0.0,0,3,0,0,1,17,0,0,0
2796051425,0,1695208451800000,8748291,496406939,176058882,591100,591100,0.041625977,0.004227102,0.91108626,1.1891437,0.64990234,0.9399414,0,0,3.142236,2.9310002,-1.121,0.162,-0.36529773,0,nan,nan,nan,0.0,0,3,0,0,1,17,0,0,0
2796639126,0,1695208452400000,8748291,496407097,176058766,591030,591030,0.037628174,0.0035272255,0.91001374,1.1879112,0.64990234,0.9399414,0,0,3.2664752,2.732,-1.7900001,-0.044000003,-0.5800204,0,nan,nan,nan,0.0,0,3,0,0,1,17,0,0,0
2797037975,0,1695208452800000,8748291,496407190,176058638,591050,591050,0.033477783,0.0023483187,0.91001374,1.1879112,0.64990234,0.9399414,0,0,3.776246,2.584,-2.753,0.063,-0.81705326,0,nan,nan,nan,0.0,0,3,0,0,1,17,0,0,0
2797635176,0,1695208453400000,8748291,496407360,176058338,591070,591070,0.028900146,0.00085551635,0.9081338,1.1858541,0.64990234,0.9399414,0,0,5.8123975,3.8760002,-4.3310003,-0.055000003,-0.8407819,0,nan,nan,nan,0.0,0,3,0,0,1,17,0,0,0
2798041916,0,1695208453800000,8748291,496407519,176058075,591080,591080,0.026901245,0.0005146362,0.9081338,1.184206,0.64990234,0.9399414,0,0,7.2300243,5.018,-5.2050004,0.030000001,-0.8036882,0,nan,nan,nan,0.0,0,3,0,0,1,17,0,0,0
2798635738,0,1695208454400000,8748291,496407837,176057583,591070,591070,0.030273438,0.00033638335,0.9070578,1.1821425,0.64990234,0.9399414,0,0,9.487039,6.742,-6.6740003,0.08400001,-0.78032964,0,nan,nan,nan,0.0,0,3,0,0,1,17,0,0,0
2799029940,0,1695208454800000,8748291,496408102,176057190,591020,591020,0.028564453,0.0002368691,0.9070578,1.1809027,0.64990234,0.9399414,0,0,10.981854,7.9410005,-7.5850005,0.097,-0.7624729,0,nan,nan,nan,0.0,0,3,0,0,1,17,0,0,0
2799636120,0,1695208455400000,8748291,496408550,176056534,591010,591010,0.031677246,0.00023105765,0.90490204,1.1788335,0.66015625,0.97021484,0,0,11.710823,8.5130005,-8.0390005,-0.216,-0.75676894,0,nan,nan,nan,0.0,0,3,0,0,1,16,0,0,0
2800037818,0,1695208455800000,8748291,496408856,176056093,591100,591100,0.032409668,0.00024009128,0.90409225,1.1771755,0.64990234,0.9399414,0,0,11.61873,8.559,-7.8570004,0.07700001,-0.74266106,0,nan,nan,nan,0.0,0,3,0,0,1,17,0,0,0
2800638594,0,1695208456400000,8748291,496409319,176055453,591030,591030,0.036865234,0.0002771904,0.90301144,1.1750997,0.64990234,0.9399414,0,0,11.53258,8.68,-7.5930004,0.066,-0.7186995,0,nan,nan,nan,0.0,0,3,0,0,1,17,0,0,0
2801038158,0,1695208456800000,8748291,496409630,176055031,591020,591020,0.03277588,0.00024725578,0.9019294,1.1730202,0.64990234,0.9399414,0,0,11.514321,8.6310005,-7.6200004,-0.14500001,-0.72326666,0,nan,nan,nan,0.0,0,3,0,0,1,17,0,0,0
2801638049,0,1695208457400000,8748291,496410097,176054398,590990,590990,0.036468506,0.0002757888,0.9011169,1.1701028,0.64990234,0.9399414,0,0,11.4993105,8.547,-7.6930003,0.026,-0.7328604,0,nan,nan,nan,0.0,0,3,0,0,1,17,0,0,0
2802036537,0,1695208457800000,8748291,496410407,176053970,590970,590970,0.033477783,0.00024325834,0.9000326,1.1688503,0.64990234,0.9399414,0,0,11.731293,8.767,-7.7950006,0.030000001,-0.7267769,0,nan,nan,nan,0.0,0,3,0,0,1,17,0,0,0
2802636392,0,1695208458400000,8748291,496410879,176053323,590970,590970,0.03277588,0.00023751904,0.8989469,1.1659224,0.64990234,0.9399414,0,0,11.747028,8.739,-7.8500004,-0.007,-0.7318596,0,nan,nan,nan,0.0,0,3,0,0,1,17,0,0,0
2803035440,0,1695208458800000,8748291,496411196,176052890,590940,590940,0.033843994,0.00024351082,0.8981317,1.1638266,0.64990234,0.9399414,0,0,11.790875,8.839001,-7.8010006,0.20300001,-0.7230991,0,nan,nan,nan,0.0,0,3,0,0,1,17,0,0,0
2803641634,0,1695208459400000,8748291,496411660,176052245,590940,590940,0.037261963,0.00029412445,0.89595443,1.1621472,0.64990234,0.9399414,0,0,11.25707,8.326,-7.5740004,-0.18400002,-0.7381378,0,nan,nan,nan,0.0,0,3,0,0,1,17,0,0,0
2804038656,0,1695208459800000,8748291,496411945,176051845,591000,591000,0.030273438,0.0002891286,0.89486384,1.1600444,0.64990234,0.9399414,0,0,10.233265,7.5580006,-6.8980002,-0.11800001,-0.73977405,0,nan,nan,nan,0.0,0,3,0,0,1,17,0,0,0
2804641955,0,1695208460400000,8748291,496412322,176051314,591100,591100,0.033477783,0.00043869024,0.894045,1.157938,0.64990234,0.9399414,0,0,8.735748,6.466,-5.874,0.016,-0.73746085,0,nan,nan,nan,0.0,0,3,0,0,1,17,0,0,0
2805039606,0,1695208460800000,8748291,496412542,176051009,591090,591090,0.031341553,0.00052028714,0.892952,1.1558276,0.64990234,0.9399414,0,0,7.7613864,5.7510004,-5.2120004,-0.013,-0.73627234,0,nan,nan,nan,0.0,0,3,0,0,1,17,0,0,0
2805638239,0,1695208461400000,8748291,496412821,176050611,591070,591070,0.027893066,0.00069734757,0.8910361,1.1541365,0.64990234,0.9399414,0,0,6.3245025,4.6060004,-4.334,-0.023000002,-0.7549825,0,nan,nan,nan,0.0,0,3,0,0,1,17,0,0,0
2806040676,0,1695208461800000,8748291,496412975,176050389,591070,591070,0.033111572,0.0011104133,0.8899394,1.1528667,0.64990234,0.9399414,0,0,5.463305,3.992,-3.726,-0.16900001,-0.7509469,0,nan,nan,nan,0.0,0,3,0,0,1,17,0,0,0
2806640123,0,1695208462400000,8748291,496413170,176050112,591090,591090,0.033111572,0.0017073217,0.888017,1.1511713,0.64990234,0.9399414,0,0,4.4041424,3.236,-2.9870002,0.051000003,-0.7454067,0,nan,nan,nan,0.0,0,3,0,0,1,17,0,0,0
2807046082,0,1695208462800000,8748291,496413277,176049960,591040,591040,0.029586792,0.0020720775,0.88691664,1.1490486,0.64990234,0.9399414,0,0,3.7790356,2.759,-2.582,-0.048,-0.75227046,0,nan,nan,nan,0.0,0,3,0,0,1,17,0,0,0
2807638769,0,1695208463400000,8748291,496413403,176049771,591060,591060,0.032409668,0.0040176273,0.88609046,1.1469219,0.64990234,0.9399414,0,0,2.8403816,2.045,-1.9710001,-0.030000001,-0.766974,0,nan,nan,nan,0.0,0,3,0,0,1,17,0,0,0
2808035591,0,1695208463800000,8748291,496413470,176049674,591070,591070,0.036468506,0.0070905313,0.88498765,1.14607,0.64990234,0.9399414,0,0,2.268671,1.6480001,-1.5580001,0.060000002,-0.75733316,0,nan,nan,nan,0.0,0,3,0,0,1,17,0,0,0
2808627587,0,1695208464400000,8748291,496413545,176049564,591040,591040,0.030273438,0.012426574,0.8838835,1.1439378,0.64990234,0.9399414,0,0,1.561629,1.123,-1.0840001,0.05,-0.767729,0,nan,nan,nan,0.0,0,3,0,0,1,17,0,0,0
2809034792,0,1695208464800000,8748291,496413580,176049506,591060,591060,0.026901245,0.014707133,0.88305444,1.1430838,0.64990234,0.9399414,0,0,1.3673077,0.88000005,-1.0270001,-0.201,-0.86233044,0,nan,nan,nan,0.0,0,3,0,0,1,17,0,0,0
2809635072,0,1695208465400000,8748291,496413627,176049426,591100,591100,0.024642944,0.016965648,0.8819479,1.1418016,0.64990234,0.9399414,0,0,1.2119836,0.726,-0.9620001,-0.128,-0.9243082,0,nan,nan,nan,0.0,0,3,0,0,1,17,0,0,0
2810028114,0,1695208465800000,8748291,496413639,176049372,591150,591150,0.023101807,0.021594811,0.881117,1.1418016,0.64990234,0.9399414,0,0,1.0400318,-0.069000006,-1.0320001,-0.109000005,-1.6375574,0,nan,nan,nan,0.0,0,3,0,0,1,17,0,0,0
2810637649,0,1695208466400000,8748291,496413597,176049280,591230,591230,0.026565552,0.00801246,0.881117,1.1430838,0.64990234,0.9399414,0,0,1.835454,-1.3490001,-1.223,-0.231,-2.4051445,0,nan,nan,nan,0.0,0,3,0,0,1,17,0,0,0
2811037925,0,1695208466800000,8748291,496413536,176049193,591300,591300,0.024337769,0.0029718892,0.881117,1.1418016,0.64990234,0.9399414,0,0,2.861939,-2.013,-2.0340002,-0.037,-2.3510056,0,nan,nan,nan,0.0,0,3,0,0,1,17,0,0,0
2811635403,0,1695208467400000,8748291,496413406,176048947,591320,591320,0.025283813,0.0010736351,0.87889755,1.140946,0.64990234,0.9399414,0,0,4.8528104,-2.788,-3.9720001,0.006,-2.1828053,0,nan,nan,nan,0.0,0,3,0,0,1,17,0,0,0
2812038109,0,1695208467800000,8748291,496413299,176048695,591280,591280,0.024642944,0.0006658868,0.876951,1.1388042,0.64990234,0.9399414,0,0,6.0906425,-3.1850002,-5.183,0.29700002,-2.121816,0,nan,nan,nan,0.0,0,3,0,0,1,17,0,0,0
2812627650,0,1695208468400000,8748291,496413112,176048188,591300,591300,0.024642944,0.00039314592,0.875,1.1357988,0.64990234,0.9399414,0,0,7.9171605,-3.8320003,-6.9280005,-0.004,-2.07603,0,nan,nan,nan,0.0,0,3,0,0,1,17,0,0,0
2813038032,0,1695208468800000,8748291,496412963,176047775,591130,591130,0.021606445,0.0002602832,0.8738832,1.1349387,0.64990234,0.9399414,0,0,9.130986,-4.431,-7.9610004,0.60300004,-2.0786836,0,nan,nan,nan,0.0,0,3,0,0,1,17,0,0,0
2813635319,0,1695208469400000,8748291,496412704,176047055,590730,590730,0.026565552,0.00024146149,0.87304467,1.1327856,0.64990234,0.9399414,0,0,10.507049,-5.1120005,-9.159,0.615,-2.0798674,0,nan,nan,nan,0.0,0,3,0,0,1,17,0,0,0
2814025074,0,1695208469800000,8748291,496412506,176046533,590650,590650,0.021606445,0.00017831843,0.8719254,1.1319232,0.64990234,0.9399414,0,0,11.007651,-5.6130004,-9.469001,-0.025,-2.1058874,0,nan,nan,nan,0.0,0,3,0,0,1,17,0,0,0
2814634590,0,1695208470400000,8748291,496412180,176045734,590930,590930,0.020446777,0.00015660634,0.871085,1.1301963,0.64990234,0.9399414,0,0,11.428416,-6.2000003,-9.598001,-0.21700001,-2.144332,0,nan,nan,nan,0.0,0,3,0,0,1,17,0,0,0
2815034970,0,1695208470800000,8748291,496411957,176045202,590880,590880,0.026565552,0.00019846766,0.86996317,1.1301963,0.64990234,0.9399414,0,0,11.569671,-6.3380003,-9.679001,0.063,-2.1505523,0,nan,nan,nan,0.0,0,3,0,0,1,17,0,0,0
2815635762,0,1695208471400000,8748291,496411616,176044394,590830,590830,0.021316528,0.00015581561,0.8691209,1.1288995,0.64990234,0.9399414,0,0,11.696585,-6.3710003,-9.809,-0.063,-2.146824,0,nan,nan,nan,0.0,0,3,0,0,1,17,0,0,0
2816033987,0,1695208471800000,8748291,496411392,176043854,590850,590850,0.021606445,0.00016452288,0.8679965,1.1280341,0.64990234,0.9399414,0,0,11.461583,-6.156,-9.666,0.2,-2.137887,0,nan,nan,nan,0.0,0,3,0,0,1,17,0,0,0
2816641429,0,1695208472400000,8748291,496411067,176043038,590720,590720,0.021026611,0.00015757332,0.8668707,1.1258677,0.64990234,0.9399414,0,0,11.555629,-5.997,-9.873,0.30400002,-2.1166496,0,nan,nan,nan,0.0,0,3,0,0,1,17,0,0,0
2817043543,0,1695208472800000,8748291,496410849,176042486,590650,590650,0.021606445,0.00015756792,0.8660254,1.125,0.64990234,0.9399414,0,0,11.710122,-6.0930004,-10.0,0.048,-2.118026,0,nan,nan,nan,0.0,0,3,0,0,1,17,0,0,0
2817635179,0,1695208473400000,8748291,496410520,176041660,590820,590820,0.02279663,0.00017637586,0.864897,1.1241316,0.64990234,0.9399414,0,0,11.381177,-6.0490003,-9.626,-0.53000003,-2.1318383,0,nan,nan,nan,0.0,0,3,0,0,1,17,0,0,0
2818028725,0,1695208473800000,8748291,496410310,176041142,591020,591020,0.021606445,0.00018711678,0.864897,1.125,0.64990234,0.9399414,0,0,10.7658415,-5.828,-9.028001,-0.65800005,-2.1440349,0,nan,nan,nan,0.0,0,3,0,0,1,17,0,0,0
2818638072,0,1695208474400000,8748291,496410014,176040449,591220,591220,0.024337769,0.00027828568,0.8660254,1.127168,0.64990234,0.9399414,0,0,9.35308,-5.2970004,-7.7070003,0.155,-2.172946,0,nan,nan,nan,0.0,0,3,0,0,1,17,0,0,0
2819047231,0,1695208474800000,8748291,496409841,176040036,591260,591260,0.019317627,0.0002743539,0.8668707,1.1280341,0.64990234,0.9399414,0,0,8.392185,-4.413,-7.1370006,-0.132,-2.1245828,0,nan,nan,nan,0.0,0,3,0,0,1,17,0,0,0
2819641527,0,1695208475400000,8748291,496409615,176039502,591250,591250,0.021026611,0.00044491322,0.8691209,1.1301963,0.64990234,0.9399414,0,0,6.874797,-3.7140002,-5.7850003,-0.053000003,-2.1415308,0,nan,nan,nan,0.0,0,3,0,0,1,17,0,0,0
2820043215,0,1695208475800000,8748291,496409492,176039200,591280,591280,0.021026611,0.0005821553,0.86996317,1.1319232,0.64990234,0.9399414,0,0,6.0118446,-3.1890001,-5.0940003,-0.15400001,-2.1301365,0,nan,nan,nan,0.0,0,3,0,0,1,17,0,0,0
2820643415,0,1695208476400000,8748291,496409338,176038817,591370,591370,0.019317627,0.00084120966,0.8719254,1.1349387,0.64990234,0.9399414,0,0,4.7934675,-2.5070002,-4.084,-0.115,-2.121344,0,nan,nan,nan,0.0,0,3,0,0,1,17,0,0,0
2821043268,0,1695208476800000,8748291,496409255,176038609,591430,591430,0.019317627,0.0012250597,0.87304467,1.1357988,0.64990234,0.9399414,0,0,3.9710138,-2.0180001,-3.42,0.015000001,-2.1038737,0,nan,nan,nan,0.0,0,3,0,0,1,17,0,0,0
2821643216,0,1695208477400000,8748291,496409157,176038363,591490,591490,0.017959595,0.001981713,0.875,1.1379464,0.64990234,0.9399414,0,0,3.0113103,-1.4720001,-2.6260002,-0.07300001,-2.081702,0,nan,nan,nan,0.0,0,3,0,0,1,17,0,0,0
2822041396,0,1695208477800000,8748291,496409107,176038237,591510,591510,0.019317627,0.0033606128,0.8761154,1.1388042,0.64990234,0.9399414,0,0,2.4026196,-1.258,-2.0410001,-0.156,-2.1231618,0,nan,nan,nan,0.0,0,3,0,0,1,17,0,0,0
2822640586,0,1695208478400000,8748291,496409051,176038097,591590,591590,0.01638794,0.0062616966,0.87806386,1.1388042,0.64990234,0.9399414,0,0,1.6226671,-0.76400006,-1.4260001,-0.126,-2.0626445,0,nan,nan,nan,0.0,0,3,0,0,1,17,0,0,0
2823039919,0,1695208478800000,8748291,496409025,176038030,591630,591630,0.019882202,0.012554614,0.87889755,1.140946,0.64990234,0.9399414,0,0,1.2684392,-0.66400003,-1.069,-0.15900001,-2.126616,0,nan,nan,nan,0.0,0,3,0,0,1,17,0,0,0
2823640548,0,1695208479400000,8748291,496408992,176037971,591700,591700,0.030975342,0.0836466,0.880008,1.1418016,0.64990234,0.9399414,0,0,0.6202516,-0.526,-0.30600002,-0.120000005,-2.614701,0,nan,nan,nan,0.0,0,3,0,0,1,17,0,0,0
2824041701,0,1695208479800000,8748291,496408971,176037978,591750,591750,0.04840088,0.05786112,0.881117,1.1418016,0.64990234,0.9399414,0,0,0.91474426,-0.73,0.551,-0.016,2.4950302,0,nan,nan,nan,0.0,0,3,0,0,1,17,0,0,0
2824638413,0,1695208480400000,8748291,496408926,176038075,591730,591730,0.030975342,0.0071341433,0.8819479,1.1430838,0.64990234,0.9399414,0,0,2.088679,-1.07,1.7880001,-0.14400001,2.1100636,0,nan,nan,nan,0.0,0,3,0,0,1,17,0,0,0
2825033447,0,1695208480800000,8748291,496408873,176038204,591740,591740,0.034973145,0.0028980596,0.88305444,1.1439378,0.64990234,0.9399414,0,0,3.4760478,-1.9440001,2.8790002,0.123,2.1647072,0,nan,nan,nan,0.0,0,3,0,0,1,17,0,0,0
2825636364,0,1695208481400000,8748291,496408726,176038508,591580,591580,0.038024902,0.0012050242,0.88305444,1.1447912,0.64990234,0.9399414,0,0,5.6232862,-3.463,4.4230003,0.257,2.235056,0,nan,nan,nan,0.0,0,3,0,0,1,17,0,0,0
2826037084,0,1695208481800000,8748291,496408581,176038781,591390,591390,0.04537964,0.00091961876,0.8838835,1.14607,0.64990234,0.9399414,0,0,7.0461016,-4.537,5.3630004,0.549,2.272953,0,nan,nan,nan,0.0,0,3,0,0,1,17,0,0,0
2826645072,0,1695208482400000,8748291,496408285,176039278,591100,591100,0.037261963,0.00044345474,0.88498765,1.1481984,0.64990234,0.9399414,0,0,9.177736,-6.4230003,6.5400004,0.45200002,2.3471692,0,nan,nan,nan,0.0,0,3,0,0,1,17,0,0,0
2827041518,0,1695208482800000,8748291,496408033,176039662,590880,590880,0.044525146,0.0004085322,0.88691664,1.149898,0.64990234,0.9399414,0,0,10.452979,-7.5030003,7.2590003,0.526,2.372722,0,nan,nan,nan,0.0,0,3,0,0,1,17,0,0,0
2827632383,0,1695208483400000,8748291,496407601,176040306,590900,590900,0.034973145,0.00026869614,0.88609046,1.1490486,0.64990234,0.9399414,0,0,11.425928,-8.1710005,7.9620004,-0.62700003,2.3691487,0,nan,nan,nan,0.0,0,3,0,0,1,17,0,0,0
2828046305,0,1695208483800000,8748291,496407307,176040747,591050,591050,0.036468506,0.00027559322,0.88609046,1.1481984,0.64990234,0.9399414,0,0,11.505277,-8.267,7.9990005,-0.21000001,2.3726692,0,nan,nan,nan,0.0,0,3,0,0,1,17,0,0,0
2828645193,0,1695208484400000,8748291,496406864,176041420,591100,591100,0.031341553,0.00023057498,0.88609046,1.1469219,0.64990234,0.9399414,0,0,11.660373,-8.2630005,8.225,-0.19100001,2.3584993,0,nan,nan,nan,0.0,0,3,0,0,1,17,0,0,0
2829032679,0,1695208484800000,8748291,496406573,176041875,591150,591150,0.031341553,0.0002365592,0.88498765,1.1469219,0.64990234,0.9399414,0,0,11.51052,-7.9530005,8.321,-0.053000003,2.3335857,0,nan,nan,nan,0.0,0,3,0,0,1,17,0,0,0
2829638945,0,1695208485400000,8748291,496406145,176042573,591120,591120,0.027557373,0.00019956521,0.88498765,1.14607,0.64990234,0.9399414,0,0,11.751589,-8.093,8.52,-0.113000005,2.3304973,0,nan,nan,nan,0.0,0,3,0,0,1,17,0,0,0
2830034864,0,1695208485800000,8748291,496405858,176043045,591120,591120,0.03277588,0.0002416477,0.8838835,1.1447912,0.64990234,0.9399414,0,0,11.646279,-7.9700003,8.492001,-0.029000001,2.3244958,0,nan,nan,nan,0.0,0,3,0,0,1,17,0,0,0
2830643171,0,1695208486400000,8748291,496405433,176043750,591010,591010,0.03277588,0.0002436065,0.8838835,1.1447912,0.64990234,0.9399414,0,0,11.602491,-7.8700004,8.521001,0.27100003,2.3164985,0,nan,nan,nan,0.0,0,3,0,0,1,17,0,0,0
2831042682,0,1695208486800000,8748291,496405148,176044222,590960,590960,0.03277588,0.00023977789,0.8838835,1.1439378,0.64990234,0.9399414,0,0,11.693108,-8.0,8.526,-0.19000001,2.3243766,0,nan,nan,nan,0.0,0,3,0,0,1,17,0,0,0
2831633470,0,1695208487400000,8748291,496404725,176044908,590960,590960,0.028900146,0.00024286198,0.8838835,1.1439378,0.64990234,0.9399414,0,0,10.909062,-7.4930005,7.9280005,-0.097,2.3279936,0,nan,nan,nan,0.0,0,3,0,0,1,17,0,0,0
2832035363,0,1695208487800000,8748291,496404461,176045337,591050,591050,0.028900146,0.00026886674,0.8838835,1.1439378,0.64990234,0.9399414,0,0,10.369274,-7.135,7.5220003,-0.18200001,2.3297968,0,nan,nan,nan,0.0,0,3,0,0,1,17,0,0,0
2832636612,0,1695208488400000,8748291,496404105,176045917,591060,591060,0.028900146,0.00036115883,0.8838835,1.1430838,0.64990234,0.9399414,0,0,8.949931,-6.1320004,6.5130005,-0.284,2.3260732,0,nan,nan,nan,0.0,0,3,0,0,1,17,0,0,0
2833025269,0,1695208488800000,8748291,496403898,176046257,591160,591160,0.028900146,0.000467988,0.8838835,1.1418016,0.64990234,0.9399414,0,0,7.858379,-5.3500004,5.756,0.009000001,2.319654,0,nan,nan,nan,0.0,0,3,0,0,1,17,0,0,0
2833636582,0,1695208489400000,8748291,496403631,176046697,591200,591200,0.02822876,0.0006518472,0.88305444,1.1418016,0.64990234,0.9399414,0,0,6.580792,-4.5680003,4.737,-0.032,2.3380342,0,nan,nan,nan,0.0,0,3,0,0,1,17,0,0,0
2834039233,0,1695208489800000,8748291,496403482,176046938,591220,591220,0.029922485,0.00094561547,0.88305444,1.140946,0.64990234,0.9399414,0,0,5.6267023,-3.943,4.012,-0.128,2.3475208,0,nan,nan,nan,0.0,0,3,0,0,1,17,0,0,0
2834638652,0,1695208490400000,8748291,496403292,176047233,591190,591190,0.036102295,0.001753936,0.88498765,1.1430838,0.64990234,0.9399414,0,0,4.5370994,-3.1850002,3.2310002,0.041,2.349025,0,nan,nan,nan,0.0,0,3,0,0,1,17,0,0,0
2835038242,0,1695208490800000,8748291,496403185,176047396,591190,591190,0.033477783,0.002247535,0.88498765,1.1430838,0.64990234,0.9399414,0,0,3.8599296,-2.7140002,2.7440002,0.061000004,2.350698,0,nan,nan,nan,0.0,0,3,0,0,1,17,0,0,0
2835640207,0,1695208491400000,8748291,496403053,176047595,591220,591220,0.029586792,0.0031368758,0.88498765,1.1430838,0.64990234,0.9399414,0,0,3.0749037,-2.1950002,2.148,-0.15200001,2.367016,0,nan,nan,nan,0.0,0,3,0,0,1,17,0,0,0
2836040432,0,1695208491800000,8748291,496402984,176047699,591290,591290,0.029586792,0.004773651,0.88498765,1.1418016,0.64990234,0.9399414,0,0,2.4955003,-1.797,1.723,-0.172,2.3772142,0,nan,nan,nan,0.0,0,3,0,0,1,17,0,0,0
2836638580,0,1695208492400000,8748291,496402911,176047824,591350,591350,0.022506714,0.009412112,0.88305444,1.1400898,0.64990234,0.9399414,0,0,1.5635253,-0.87500006,1.2750001,-0.231,2.172251,0,nan,nan,nan,0.0,0,3,0,0,1,17,0,0,0
2837041650,0,1695208492800000,8748291,496402895,176047901,591430,591430,0.016647339,0.0072924946,0.88305444,1.1388042,0.64990234,0.9399414,0,0,1.5296814,-0.052,1.5100001,-0.23900001,1.6052197,0,nan,nan,nan,0.0,0,3,0,0,1,17,0,0,0
2837639775,0,1695208493400000,8748291,496402917,176048061,591390,591390,0.0143966675,0.002081548,0.881117,1.1370878,0.64990234,0.9399414,0,0,2.6298957,0.785,2.5100002,0.0050000004,1.2676847,0,nan,nan,nan,0.0,0,3,0,0,1,17,0,0,0
2838044478,0,1695208493800000,8748291,496402956,176048232,591380,591380,0.013687134,0.0008837421,0.87889755,1.1349387,0.64990234,0.9399414,0,0,3.9362147,1.4260001,3.6680002,-0.078,1.2000103,0,nan,nan,nan,0.0,0,3,0,0,1,17,0,0,0
2838635298,0,1695208494400000,8748291,496403054,176048612,591400,591400,0.013923645,0.00041578183,0.87806386,1.1327856,0.64990234,0.9399414,0,0,5.78692,2.101,5.392,-0.024,1.199243,0,nan,nan,nan,0.0,0,3,0,0,1,17,0,0,0
2839036540,0,1695208494800000,8748291,496403135,176048941,591450,591450,0.014884949,0.0003038862,0.8761154,1.1319232,0.64990234,0.9399414,0,0,6.999865,2.5770001,6.5070004,-0.127,1.1937127,0,nan,nan,nan,0.0,0,3,0,0,1,17,0,0,0
2839637838,0,1695208495400000,8748291,496403285,176049543,591480,591480,0.013687134,0.0001845188,0.875,1.1288995,0.64990234,0.9399414,0,0,8.613525,3.101,8.035001,-0.124000005,1.2024721,0,nan,nan,nan,0.0,0,3,0,0,1,17,0,0,0
2840039107,0,1695208495800000,8748291,496403403,176050021,591490,591490,0.0143966675,0.00014996233,0.8738832,1.1280341,0.64990234,0.9399414,0,0,9.79809,3.5790002,9.121,-0.026,1.1968664,0,nan,nan,nan,0.0,0,3,0,0,1,17,0,0,0
2840640223,0,1695208496400000,8748291,496403602,176050827,591490,591490,0.013221741,0.00011538704,0.8719254,1.1258677,0.64990234,0.9399414,0,0,10.704962,3.7770002,10.016001,-0.101,1.2101887,0,nan,nan,nan,0.0,0,3,0,0,1,17,0,0,0
2841039009,0,1695208496800000,8748291,496403736,176051373,591540,591540,0.01537323,0.00014497829,0.86996317,1.1228278,0.64990234,0.9399414,0,0,10.298028,3.676,9.619,-0.106000006,1.205763,0,nan,nan,nan,0.0,0,3,0,0,1,17,0,0,0
2841637548,0,1695208497400000,8748291,496403923,176052112,591600,591600,0.015129089,0.00020007443,0.8660254,1.1189071,0.64990234,0.9399414,0,0,8.697185,3.2640002,8.06,-0.15400001,1.1860191,0,nan,nan,nan,0.0,0,3,0,0,1,17,0,0,0
2842038008,0,1695208497800000,8748291,496404033,176052525,591550,591550,0.016647339,0.00029821278,0.8640498,1.1171602,0.64990234,0.9399414,0,0,7.4754763,2.9160001,6.879,0.24300002,1.1698587,0,nan,nan,nan,0.0,0,3,0,0,1,17,0,0,0
2842630614,0,1695208498400000,8748291,496404176,176053038,591460,591460,0.015625,0.000429455,0.8609361,1.1127808,0.64990234,0.9399414,0,0,6.033928,2.3950002,5.5360003,0.158,1.1624868,0,nan,nan,nan,0.0,0,3,0,0,1,17,0,0,0
2843044105,0,1695208498800000,8748291,496404259,176053325,591430,591430,0.014160156,0.00048867916,0.85894877,1.110145,0.64990234,0.9399414,0,0,5.3834944,2.272,4.88,0.075,1.135067,0,nan,nan,nan,0.0,0,3,0,0,1,17,0,0,0
2843642542,0,1695208499400000,8748291,496404405,176053730,591380,591380,0.01537323,0.0004217791,0.85695684,1.1070619,0.64990234,0.9399414,0,0,6.0376334,3.2700002,5.0750003,0.067,0.99841386,0,nan,nan,nan,0.0,0,3,0,0,1,17,0,0,0
2844035663,0,1695208499800000,8748291,496404537,176054033,591390,591390,0.01876831,0.00037979326,0.85695684,1.1070619,0.64990234,0.9399414,0,0,7.0297356,3.953,5.813,0.0,0.97360086,0,nan,nan,nan,0.0,0,3,0,0,1,17,0,0,0
2844637539,0,1695208500400000,8748291,496404763,176054534,591430,591430,0.017425537,0.00032113542,0.85496026,1.1048543,0.64990234,0.9399414,0,0,7.366304,4.2650003,6.0060005,-0.013,0.9533085,0,nan,nan,nan,0.0,0,3,0,0,1,17,0,0,0
2845037782,0,1695208500800000,8748291,496404911,176054850,591430,591430,0.016906738,0.000384964,0.85410315,1.10397,0.64990234,0.9399414,0,0,6.6281853,3.9570003,5.3160005,-0.123,0.9309168,0,nan,nan,nan,0.0,0,3,0,0,1,17,0,0,0
2846040578,0,1695208501800000,8748291,496405198,176055417,591430,591430,0.01612854,0.0010399973,0.84894234,1.0982052,0.64990234,0.9399414,0,0,3.9385087,2.4350002,3.095,0.060000002,0.90418524,0,nan,nan,nan,0.0,0,3,0,0,1,17,0,0,0
2846632332,0,1695208502400000,8748291,496405309,176055638,591070,591070,0.020446777,0.0022992808,0.84692687,1.0950885,0.64990234,0.9399414,0,0,3.2713468,1.774,2.397,1.345,0.9336667,0,nan,nan,nan,0.0,0,3,0,0,1,17,0,0,0
2847039541,0,1695208502800000,8748291,496405366,176055756,590500,590500,0.023712158,0.0047930665,0.8449066,1.0928568,0.64990234,0.9399414,0,0,2.6600487,1.343,1.7730001,1.4590001,0.9225295,0,nan,nan,nan,0.0,0,3,0,0,1,17,0,0,0
2847638396,0,1695208503400000,8748291,496405426,176055871,589640,589640,0.026901245,0.013834296,0.8428815,1.0901728,0.64990234,0.9399414,0,0,1.9506484,0.95300007,1.018,1.3640001,0.8183644,0,nan,nan,nan,0.0,0,3,0,0,1,17,0,0,0
2848024916,0,1695208503800000,8748291,496405453,176055920,589110,589110,0.031677246,0.03664982,0.8411418,1.0879309,0.64990234,0.9399414,0,0,1.6905817,0.59900004,0.711,1.4120001,0.8706869,0,nan,nan,nan,0.0,0,3,0,0,1,17,0,0,0
2848636963,0,1695208504400000,8748291,496405475,176055967,588250,588250,0.037261963,0.14446539,0.8391076,1.0861342,0.64990234,0.9399414,0,0,1.4152638,0.287,0.41900003,1.3210001,0.97023296,0,nan,nan,nan,0.0,0,3,0,0,1,17,0,0,0
2849036228,0,1695208504800000,8748291,496405482,176055983,587700,587700,0.045806885,0.9534756,0.8391076,1.0861342,0.64990234,0.9399414,0,0,1.3765621,0.11100001,0.18900001,1.3590001,1.0397662,0,nan,nan,nan,0.0,0,3,0,0,1,17,0,0,0
2849637324,0,1695208505400000,8748291,496405488,176055984,586780,586780,0.04623413,19.524548,0.8391076,1.0861342,0.64990234,0.9399414,0,0,1.5247768,0.008,-0.048,1.524,-1.4056476,0,nan,nan,nan,0.0,0,3,0,0,1,17,0,0,0
2850039033,0,1695208505800000,8748291,496405488,176055979,586210,586210,0.04623413,6.47809,0.8391076,1.0870329,0.64990234,0.9399414,0,0,1.4484658,0.024,-0.081,1.4460001,-1.2827408,0,nan,nan,nan,0.0,0,3,0,0,1,17,0,0,0
2850637287,0,1695208506400000,8748291,496405490,176055970,585280,585280,0.047088623,4.6374454,0.8391076,1.0879309,0.64990234,0.9399414,0,0,1.592192,0.065000005,-0.07700001,1.5890001,-0.8697049,0,nan,nan,nan,0.0,0,3,0,0,1,17,0,0,0
2851037722,0,1695208506800000,8748291,496405494,176055967,584670,584670,0.046661377,6.240655,0.8391076,1.0879309,0.64990234,0.9399414,0,0,1.4775325,0.086,-0.009000001,1.475,-0.10427162,0,nan,nan,nan,0.0,0,3,0,0,1,17,0,0,0
2851639120,0,1695208507400000,8748291,496405496,176055963,583710,583710,0.04623413,23.059414,0.83794296,1.0888282,0.64990234,0.9399414,0,0,1.6566054,-0.041,0.018000001,1.6560001,2.7279034,0,nan,nan,nan,0.0,0,3,0,0,1,17,0,0,0
2852033915,0,1695208507800000,8748291,496405498,176055960,583020,583020,0.044952393,1.932854,0.83794296,1.0888282,0.64990234,0.9399414,0,0,1.719775,0.069000006,-0.136,1.713,-1.1012837,0,nan,nan,nan,0.0,0,3,0,0,1,17,0,0,0
2852637703,0,1695208508400000,8748291,496405496,176055950,582060,582060,0.044952393,1.1197785,0.83794296,1.0888282,0.64990234,0.9399414,0,0,1.5539708,-0.08800001,-0.18,1.5410001,-2.0255156,0,nan,nan,nan,0.0,0,3,0,0,1,17,0,0,0
2853039193,0,1695208508800000,8748291,496405494,176055942,581450,581450,0.04623413,3.94725,0.83794296,1.0901728,0.64990234,0.9399414,0,0,1.4530362,0.007,-0.108,1.4490001,-1.506072,0,nan,nan,nan,0.0,0,3,0,0,1,17,0,0,0
2853637574,0,1695208509400000,8748291,496405493,176055940,580590,580590,0.04623413,1.667597,0.83794296,1.0901728,0.64990234,0.9399414,0,0,1.441648,0.163,0.034,1.432,0.20564036,0,nan,nan,nan,0.0,0,3,0,0,1,17,0,0,0
2854038119,0,1695208509800000,8748291,496405495,176055944,580040,580040,0.047088623,1.6098673,0.83794296,1.0919628,0.64990234,0.9399414,0,0,1.3637666,-0.045,0.165,1.353,1.8370484,0,nan,nan,nan,0.0,0,3,0,0,1,17,0,0,0
2854638570,0,1695208510400000,8748291,496405498,176055955,579220,579220,0.04537964,4.7245855,0.8391076,1.0919628,0.64990234,0.9399414,0,0,1.4882306,0.014,0.097,1.485,1.4274563,0,nan,nan,nan,0.0,0,3,0,0,1,17,0,0,0
2855043482,0,1695208510800000,8748291,496405498,176055961,578690,578690,0.045806885,2.1630485,0.8391076,1.0928568,0.64990234,0.9399414,0,0,1.3250155,-0.021000002,0.14400001,1.317,1.7156088,0,nan,nan,nan,0.0,0,3,0,0,1,17,0,0,0
2855639325,0,1695208511400000,8748291,496405491,176055973,577830,577830,0.04537964,1.7504199,0.8391076,1.0941963,0.64990234,0.9399414,0,0,1.44003,-0.07,0.14500001,1.4310001,2.020556,0,nan,nan,nan,0.0,0,3,0,0,1,17,0,0,0
2856036734,0,1695208511800000,8748291,496405486,176055978,577220,577220,0.04537964,2.981579,0.8391076,1.0941963,0.64990234,0.9399414,0,0,1.4741714,-0.116000004,0.042000003,1.4690001,2.7942066,0,nan,nan,nan,0.0,0,3,0,0,1,17,0,0,0
2856645262,0,1695208512400000,8748291,496405484,176055982,576260,576260,0.045806885,11.324322,0.8391076,1.0941963,0.64990234,0.9399414,0,0,1.6372358,0.038000003,0.051000003,1.636,0.9304399,0,nan,nan,nan,0.0,0,3,0,0,1,17,0,0,0
2857035723,0,1695208512800000,8748291,496405487,176055984,575600,575600,0.046661377,4.149521,0.8391076,1.0950885,0.64990234,0.9399414,0,0,1.7013081,0.106000006,-0.003,1.6980001,-0.028294332,0,nan,nan,nan,0.0,0,3,0,0,1,17,0,0,0
2857633060,0,1695208513400000,8748291,496405495,176055981,574620,574620,0.04623413,4.426437,0.8391076,1.0959799,0.64990234,0.9399414,0,0,1.558355,0.061000004,-0.082,1.5550001,-0.9312091,0,nan,nan,nan,0.0,0,3,0,0,1,17,0,0,0
2858037593,0,1695208513800000,8748291,496405497,176055974,574050,574050,0.046661377,3.474672,0.8391076,1.0968705,0.64990234,0.9399414,0,0,1.4954966,-0.07300001,-0.09,1.491,-2.2522757,0,nan,nan,nan,0.0,0,3,0,0,1,17,0,0,0
2858638505,0,1695208514400000,8748291,496405494,176055968,573190,573190,0.047088623,3.4932213,0.8391076,1.0968705,0.64990234,0.9399414,0,0,1.4965107,-0.086,-0.078,1.4920001,-2.4049363,0,nan,nan,nan,0.0,0,3,0,0,1,17,0,0,0
2859038939,0,1695208514800000,8748291,496405491,176055965,572590,572590,0.04751587,19.521717,0.8391076,1.0982052,0.64990234,0.9399414,0,0,1.4888177,-0.015000001,-0.047000002,1.488,-1.879727,0,nan,nan,nan,0.0,0,3,0,0,1,17,0,0,0
2859639428,0,1695208515400000,8748291,496405490,176055965,571660,571660,0.044952393,82.0299,0.83794296,1.0982052,0.64990234,0.9399414,0,0,1.4151937,0.022000002,-0.008,1.4150001,-0.34877098,0,nan,nan,nan,0.0,0,3,0,0,1,17,0,0,0
2860040056,0,1695208515800000,8748291,496405487,176055964,571130,571130,0.04840088,3.5554895,0.83794296,1.0982052,0.64990234,0.9399414,0,0,1.2863024,-0.082,-0.083000004,1.281,-2.350134,0,nan,nan,nan,0.0,0,3,0,0,1,17,0,0,0
2860642632,0,1695208516400000,8748291,496405490,176055958,570410,570410,0.04928589,46.104668,0.83794296,1.099094,0.64990234,0.9399414,0,0,1.1384696,0.013,-0.030000001,1.138,-1.1618885,0,nan,nan,nan,0.0,0,3,0,0,1,17,0,0,0
2861041957,0,1695208516800000,8748291,496405492,176055952,569970,569970,0.052886963,4.7896175,0.83998,1.0999823,0.64990234,0.9399414,0,0,1.1348753,-0.029000001,-0.101,1.13,-1.8504032,0,nan,nan,nan,0.0,0,3,0,0,1,17,0,0,0
2861631676,0,1695208517400000,8748291,496405489,176055948,569320,569320,0.047088623,2.3729398,0.8411418,1.1021996,0.64990234,0.9399414,0,0,0.9940322,-0.11000001,-0.08800001,0.984,-2.4668517,0,nan,nan,nan,0.0,0,3,0,0,1,17,0,0,0
2862036158,0,1695208517800000,8748291,496405487,176055941,568940,568940,0.048828125,2.309095,0.8420121,1.1030852,0.64990234,0.9399414,0,0,0.95612293,-0.011000001,-0.14500001,0.94500005,-1.6465133,0,nan,nan,nan,0.0,0,3,0,0,1,17,0,0,0
2862637130,0,1695208518400000,8748291,496405485,176055932,568420,568420,0.046661377,14.450721,0.8420121,1.10397,0.64990234,0.9399414,0,0,0.8239618,0.027,-0.05,0.822,-1.0756631,0,nan,nan,nan,0.0,0,3,0,0,1,17,0,0,0
2863028555,0,1695208518800000,8748291,496405488,176055929,568120,568120,0.045806885,4.490431,0.8420121,1.10397,0.64990234,0.9399414,0,0,0.7270495,0.101,0.0,0.72,0.0,0,nan,nan,nan,0.0,0,3,0,0,1,17,0,0,0
2863634724,0,1695208519400000,8748291,496405493,176055932,567720,567720,0.047973633,25.558672,0.8428815,1.1048543,0.64990234,0.9399414,0,0,0.63847166,0.014,0.041,0.637,1.2417467,0,nan,nan,nan,0.0,0,3,0,0,1,17,0,0,0
2864040424,0,1695208519800000,8748291,496405495,176055935,567440,567440,0.047088623,7.357598,0.8428815,1.1061794,0.64990234,0.9399414,0,0,0.6380353,-0.048,0.064,0.633,2.2142975,0,nan,nan,nan,0.0,0,3,0,0,1,17,0,0,0
2864637190,0,1695208520400000,8748291,496405495,176055943,567080,567080,0.046661377,5.5390997,0.8440393,1.1079437,0.64990234,0.9399414,0,0,0.5477445,0.018000001,0.09,0.54,1.3734008,0,nan,nan,nan,0.0,0,3,0,0,1,17,0,0,0
2865036209,0,1695208520800000,8748291,496405496,176055949,566820,566820,0.04623413,3.7742143,0.8440393,1.1088247,0.64990234,0.9399414,0,0,0.69487125,0.035,0.105000004,0.68600005,1.2490457,0,nan,nan,nan,0.0,0,3,0,0,1,17,0,0,0
2865632349,0,1695208521400000,8748291,496405500,176055958,566420,566420,0.047973633,6.238443,0.8449066,1.110145,0.64990234,0.9399414,0,0,0.6796808,0.061000004,0.063,0.674,0.8015258,0,nan,nan,nan,0.0,0,3,0,0,1,17,0,0,0
2866038448,0,1695208521800000,8748291,496405502,176055961,566150,566150,0.046661377,2.7176108,0.84606165,1.1110243,0.64990234,0.9399414,0,0,0.65033764,0.10300001,0.081,0.637,0.6663978,0,nan,nan,nan,0.0,0,3,0,0,1,17,0,0,0
2866640200,0,1695208522400000,8748291,496405504,176055972,565780,565780,0.04119873,1.5933295,0.84606165,1.1110243,0.64990234,0.9399414,0,0,0.6608616,-0.024,0.15900001,0.64100003,1.7206087,0,nan,nan,nan,0.0,0,3,0,0,1,17,0,0,0
2867029642,0,1695208522800000,8748291,496405503,176055976,565520,565520,0.046661377,21.958294,0.84606165,1.1110243,0.64990234,0.9399414,0,0,0.67657226,-0.035,0.030000001,0.675,2.4329665,0,nan,nan,nan,0.0,0,3,0,0,1,17,0,0,0
2867637277,0,1695208523400000,8748291,496405504,176055976,565130,565130,0.047973633,17.741728,0.84692687,1.1127808,0.64990234,0.9399414,0,0,0.73783475,-0.020000001,-0.048,0.73600006,-1.9655875,0,nan,nan,nan,0.0,0,3,0,0,1,17,0,0,0
2868034190,0,1695208523800000,8748291,496405502,176055973,564850,564850,0.045806885,5.120949,0.84692687,1.1127808,0.64990234,0.9399414,0,0,0.7251938,-0.032,-0.089,0.71900004,-1.915954,0,nan,nan,nan,0.0,0,3,0,0,1,17,0,0,0
2868636987,0,1695208524400000,8748291,496405499,176055968,564430,564430,0.044952393,2.3043053,0.84692687,1.1127808,0.64990234,0.9399414,0,0,0.6814669,-0.12200001,-0.068,0.66700006,-2.6331034,0,nan,nan,nan,0.0,0,3,0,0,1,17,0,0,0
2869035209,0,1695208524800000,8748291,496405497,176055965,564140,564140,0.0501709,8.757356,0.84807914,1.1149727,0.64990234,0.9399414,0,0,0.62063277,-0.052,-0.055000003,0.61600006,-2.3281646,0,nan,nan,nan,0.0,0,3,0,0,1,17,0,0,0
2869635293,0,1695208525400000,8748291,496405496,176055959,563750,563750,0.047088623,6.2443466,0.84894234,1.1149727,0.64990234,0.9399414,0,0,0.6537928,-0.05,-0.071,0.648,-2.1843524,0,nan,nan,nan,0.0,0,3,0,0,1,17,0,0,0
2870038031,0,1695208525800000,8748291,496405495,176055954,563460,563460,0.045806885,14.168537,0.84894234,1.1158482,0.64990234,0.9399414,0,0,0.6484975,-0.047000002,-0.032,0.646,-2.5438342,0,nan,nan,nan,0.0,0,3,0,0,1,17,0,0,0
2870632454,0,1695208526400000,8748291,496405500,176055964,563450,563450,0.039215088,0.24351598,0.85095304,1.118034,0.64990234,0.9399414,0,0,0.5391076,0.18900001,0.354,-0.36,1.0803993,0,nan,nan,nan,0.0,0,3,0,0,1,17,0,0,0
2871028948,0,1695208526800000,8748291,496405512,176055991,563520,563520,0.024642944,0.031253017,0.85095304,1.1202155,0.64990234,0.9399414,0,0,0.88862485,0.437,0.77300006,-0.034,1.0562598,0,nan,nan,nan,0.0,0,3,0,0,1,17,0,0,0
2871630036,0,1695208527400000,8748291,496405544,176056109,563520,563520,0.021026611,0.004063769,0.852959,1.1219577,0.64990234,0.9399414,0,0,2.2752068,0.734,2.153,-0.049000002,1.2422338,0,nan,nan,nan,0.0,0,3,0,0,1,17,0,0,0
2872031990,0,1695208527800000,8748291,496405573,176056252,563540,563540,0.018493652,0.0018974843,0.85410315,1.1228278,0.64990234,0.9399414,0,0,3.1222923,0.75200003,3.0300002,-0.048,1.3275268,0,nan,nan,nan,0.0,0,3,0,0,1,17,0,0,0
2872629014,0,1695208528400000,8748291,496405612,176056553,563540,563540,0.03277588,0.0019219099,0.86008495,1.1301963,0.64990234,0.9399414,0,0,4.1296525,0.50200003,4.099,0.015000001,1.4489343,0,nan,nan,nan,0.0,0,3,0,0,1,17,0,0,0
2873027258,0,1695208528800000,8748291,496405619,176056792,563560,563560,0.043670654,0.0021967848,0.864897,1.1370878,0.64990234,0.9399414,0,0,4.4613895,-0.15300001,4.4560003,-0.157,1.6051185,0,nan,nan,nan,0.0,0,3,0,0,1,17,0,0,0
2873628891,0,1695208529400000,8748291,496405583,176057160,563610,563610,0.04284668,0.0021184976,0.871085,1.14607,0.64990234,0.9399414,0,0,4.499435,-0.994,4.386,-0.141,1.7936618,0,nan,nan,nan,0.0,0,3,0,0,1,17,0,0,0
2874032596,0,1695208529800000,8748291,496405538,176057396,563620,563620,0.04840088,0.0026480618,0.8761154,1.1528667,0.64990234,0.9399414,0,0,4.2755647,-1.315,4.0680003,-0.051000003,1.8834488,0,nan,nan,nan,0.0,0,3,0,0,1,17,0,0,0
2874632748,0,1695208530400000,8748291,496405463,176057713,563610,563610,0.035736084,0.0023512891,0.88305444,1.1621472,0.64990234,0.9399414,0,0,3.8988342,-1.409,3.6350002,-0.049000002,1.9405853,0,nan,nan,nan,0.0,0,3,0,0,1,17,0,0,0
2875026698,0,1695208530800000,8748291,496405415,176057916,563620,563620,0.035339355,0.002330181,0.88609046,1.167178,0.64990234,0.9399414,0,0,3.8945308,-1.233,3.6940002,0.038000003,1.8929528,0,nan,nan,nan,0.0,0,3,0,0,1,17,0,0,0
2875629834,0,1695208531400000,8748291,496405360,176058221,563580,563580,0.035736084,0.0026691603,0.8899394,1.1730202,0.64990234,0.9399414,0,0,3.6591632,-0.69200003,3.5930002,-0.031000001,1.7610633,0,nan,nan,nan,0.0,0,3,0,0,1,17,0,0,0
2876031660,0,1695208531800000,8748291,496405340,176058410,563560,563560,0.031677246,0.003004285,0.892952,1.1759305,0.64990234,0.9399414,0,0,3.24726,-0.29200003,3.2340002,-0.026,1.6608428,0,nan,nan,nan,0.0,0,3,0,0,1,17,0,0,0
2876623977,0,1695208532400000,8748291,496405338,176058658,563450,563450,0.027557373,0.0037378161,0.8981317,1.1809027,0.64990234,0.9399414,0,0,2.7367043,0.33100003,2.6950002,0.342,1.4485884,0,nan,nan,nan,0.0,0,3,0,0,1,17,0,0,0
2877032950,0,1695208532800000,8748291,496405352,176058803,563340,563340,0.027893066,0.004163764,0.8989469,1.184206,0.64990234,0.9399414,0,0,2.5920267,0.44900003,2.549,0.14,1.3964374,0,nan,nan,nan,0.0,0,3,0,0,1,17,0,0,0
2877627266,0,1695208533400000,8748291,496405380,176058982,563260,563260,0.021026611,0.006059847,0.9019294,1.1891437,0.64990234,0.9399414,0,0,1.864595,0.512,1.7910001,0.083000004,1.2923492,0,nan,nan,nan,0.0,0,3,0,0,1,17,0,0,0
2878025317,0,1695208533800000,8748291,496405400,176059069,563240,563240,0.017166138,0.007993959,0.9019294,1.1879112,0.64990234,0.9399414,0,0,1.4683453,0.558,1.355,0.093,1.1801522,0,nan,nan,nan,0.0,0,3,0,0,1,17,0,0,0
2878628468,0,1695208534400000,8748291,496405426,176059163,563150,563150,0.021316528,0.022417447,0.9011169,1.1858541,0.64990234,0.9399414,0,0,1.0025862,0.263,0.93900007,0.23300001,1.2977086,0,nan,nan,nan,0.0,0,3,0,0,1,17,0,0,0
2879036842,0,1695208534800000,8748291,496405433,176059204,563080,563080,0.021026611,0.068098396,0.9000326,1.184206,0.64990234,0.9399414,0,0,0.5859727,0.09200001,0.54800004,0.186,1.4044642,0,nan,nan,nan,0.0,0,3,0,0,1,17,0,0,0
2879632223,0,1695208535400000,8748291,496405427,176059236,562990,562990,0.03062439,0.3104033,0.8989469,1.1821425,0.64990234,0.9399414,0,0,0.3476507,-0.18200001,0.256,0.149,2.1888251,0,nan,nan,nan,0.0,0,3,0,0,1,17,0,0,0
2880031734,0,1695208535800000,8748291,496405420,176059248,562930,562930,0.040008545,0.33452794,0.8989469,1.1809027,0.64990234,0.9399414,0,0,0.42094776,-0.27400002,0.21100001,0.24000001,2.4853683,0,nan,nan,nan,0.0,0,3,0,0,1,17,0,0,0
2880619918,0,1695208536400000,8748291,496405406,176059264,562860,562860,0.048828125,0.31477237,0.8989469,1.1800755,0.64990234,0.9399414,0,0,0.40334973,-0.319,0.231,0.087000005,2.5148497,0,nan,nan,nan,0.0,0,3,0,0,1,17,0,0,0
2881031742,0,1695208536800000,8748291,496405396,176059277,562850,562850,0.048828125,0.23660475,0.9000326,1.1800755,0.64990234,0.9399414,0,0,0.457597,-0.333,0.30900002,-0.055000003,2.3935604,0,nan,nan,nan,0.0,0,3,0,0,1,17,0,0,0
2881629854,0,1695208537400000,8748291,496405381,176059291,562840,562840,0.051971436,0.55968714,0.9011169,1.1809027,0.64990234,0.9399414,0,0,0.32134408,-0.277,0.127,0.102000006,2.7117062,0,nan,nan,nan,0.0,0,3,0,0,1,17,0,0,0
2882022381,0,1695208537800000,8748291,496405375,176059296,562790,562790,0.043670654,2.0979366,0.9019294,1.1809027,0.64990234,0.9399414,0,0,0.150549,-0.104,0.1,0.043,2.3758,0,nan,nan,nan,0.0,0,3,0,0,1,17,0,0,0
2882626360,0,1695208538400000,8748291,496405373,176059307,562700,562700,0.021026611,0.44377732,0.90301144,1.1821425,0.64990234,0.9399414,0,0,0.23790124,0.034,0.215,0.096,1.4139556,0,nan,nan,nan,0.0,0,3,0,0,1,17,0,0,0
2883028552,0,1695208538800000,8748291,496405373,176059319,562650,562650,0.02015686,0.37871036,0.90301144,1.1829684,0.64990234,0.9399414,0,0,0.24800405,0.028,0.22900002,0.091000006,1.4491295,0,nan,nan,nan,0.0,0,3,0,0,1,17,0,0,0
2883629464,0,1695208539400000,8748291,496405374,176059337,562560,562560,0.03062439,0.996239,0.90301144,1.1821425,0.64990234,0.9399414,0,0,0.28288516,-0.034,0.172,0.22200002,1.7659547,0,nan,nan,nan,0.0,0,3,0,0,1,17,0,0,0
2884032202,0,1695208539800000,8748291,496405375,176059345,562490,562490,0.034973145,1.8086127,0.9019294,1.1809027,0.64990234,0.9399414,0,0,0.28084338,-0.029000001,0.136,0.24400002,1.7808851,0,nan,nan,nan,0.0,0,3,0,0,1,17,0,0,0
2884628534,0,1695208540400000,8748291,496405373,176059349,562400,562400,0.044525146,21.772686,0.9019294,1.1800755,0.64990234,0.9399414,0,0,0.19530746,-0.043,0.014,0.19000001,2.826835,0,nan,nan,nan,0.0,0,3,0,0,1,17,0,0,0
2885028753,0,1695208540800000,8748291,496405373,176059352,562320,562320,0.04244995,11.008804,0.9019294,1.1788335,0.64990234,0.9399414,0,0,0.16790473,-0.016,0.060000002,0.156,1.8313987,0,nan,nan,nan,0.0,0,3,0,0,1,17,0,0,0
2885628802,0,1695208541400000,8748291,496405371,176059356,562250,562250,0.04840088,9.222727,0.90301144,1.1800755,0.64990234,0.9399414,0,0,0.09867624,-0.072000004,0.008,0.067,3.0309355,0,nan,nan,nan,0.0,0,3,0,0,1,17,0,0,0
2886021695,0,1695208541800000,8748291,496405368,176059356,562220,562220,0.049743652,3.7885487,0.90409225,1.1821425,0.64990234,0.9399414,0,0,0.11532129,-0.113000005,0.019000001,0.013,2.9750092,0,nan,nan,nan,0.0,0,3,0,0,1,17,0,0,0
2886628023,0,1695208542400000,8748291,496405363,176059355,562220,562220,0.04623413,10.779697,0.90409225,1.1829684,0.64990234,0.9399414,0,0,0.086168446,-0.065000005,-0.008,0.056,-3.0191317,0,nan,nan,nan,0.0,0,3,0,0,1,17,0,0,0
2887026405,0,1695208542800000,8748291,496405361,176059355,562230,562230,0.03062439,62.754887,0.90490204,1.1850303,0.64990234,0.9399414,0,0,0.029799331,-0.002,-0.022000002,-0.020000001,-1.6614562,0,nan,nan,nan,0.0,0,3,0,0,1,17,0,0,0
2887625460,0,1695208543400000,8748291,496405360,176059349,562240,562240,0.021911621,0.9996177,0.9059806,1.1858541,0.64990234,0.9399414,0,0,0.1521348,0.004,-0.148,-0.035,-1.5437759,0,nan,nan,nan,0.0,0,3,0,0,1,17,0,0,0
2888024037,0,1695208543800000,8748291,496405363,176059339,562240,562240,0.043670654,0.8240833,0.9059806,1.1870887,0.64990234,0.9399414,0,0,0.23365147,0.15300001,-0.172,0.040000003,-0.8437932,0,nan,nan,nan,0.0,0,3,0,0,1,17,0,0,0
2888626670,0,1695208544400000,8748291,496405381,176059319,562260,562260,0.04537964,0.12449662,0.9070578,1.1891437,0.64990234,0.9399414,0,0,0.60384274,0.53900003,-0.272,0.011000001,-0.4673513,0,nan,nan,nan,0.0,0,3,0,0,1,17,0,0,0
2889027222,0,1695208544800000,8748291,496405406,176059308,562300,562300,0.059051514,0.097650826,0.9070578,1.1899645,0.64990234,0.9399414,0,0,0.7777468,0.76400006,-0.14500001,0.013,-0.18755981,0,nan,nan,nan,0.0,0,3,0,0,1,17,0,0,0
2889627929,0,1695208545400000,8748291,496405435,176059292,562430,562430,0.046661377,2.0949748,0.9070578,1.1911949,0.64990234,0.9399414,0,0,0.61246145,0.10300001,-0.108,-0.59400004,-0.80909044,0,nan,nan,nan,0.0,0,3,0,0,1,17,0,0,0
2890028621,0,1695208545800000,8748291,496405434,176059277,562690,562690,0.040802002,0.413742,0.9070578,1.1899645,0.64990234,0.9399414,0,0,0.6472813,0.056,-0.30900002,-0.56600004,-1.3915125,0,nan,nan,nan,0.0,0,3,0,0,1,17,0,0,0
2890631511,0,1695208546400000,8748291,496405423,176059277,562990,562990,0.034973145,0.20968118,0.9070578,1.1899645,0.64990234,0.9399414,0,0,0.45607126,-0.326,0.246,-0.20300001,2.4951532,0,nan,nan,nan,0.0,0,3,0,0,1,17,0,0,0
2891033941,0,1695208546800000,8748291,496405409,176059293,563100,563100,0.045806885,0.15122773,0.9070578,1.1899645,0.64990234,0.9399414,0,0,0.5894243,-0.5,0.23,-0.21100001,2.710454,0,nan,nan,nan,0.0,0,3,0,0,1,17,0,0,0
2891626340,0,1695208547400000,8748291,496405378,176059309,563260,563260,0.04119873,0.08503541,0.9070578,1.1891437,0.64990234,0.9399414,0,0,0.7498867,-0.69200003,0.075,-0.279,3.0336325,0,nan,nan,nan,0.0,0,3,0,0,1,17,0,0,0
2892036584,0,1695208547800000,8748291,496405351,176059313,563350,563350,0.03842163,0.055712428,0.9059806,1.1879112,0.64990234,0.9399414,0,0,0.88677114,-0.82900006,0.049000002,-0.31100002,3.082554,0,nan,nan,nan,0.0,0,3,0,0,1,17,0,0,0
2892627314,0,1695208548400000,8748291,496405308,176059313,563490,563490,0.03277588,0.050185926,0.90490204,1.1858541,0.64990234,0.9399414,0,0,0.8562582,-0.808,-0.015000001,-0.28300002,-3.1230304,0,nan,nan,nan,0.0,0,3,0,0,1,17,0,0,0
2893024674,0,1695208548800000,8748291,496405281,176059313,563550,563550,0.04840088,0.098008424,0.90490204,1.1858541,0.64990234,0.9399414,0,0,0.7036619,-0.70000005,0.062000003,-0.036000002,3.0532517,0,nan,nan,nan,0.0,0,3,0,0,1,17,0,0,0
2893628057,0,1695208549400000,8748291,496405246,176059317,563610,563610,0.049743652,0.14584799,0.9059806,1.1870887,0.64990234,0.9399414,0,0,0.58718485,-0.58400005,0.003,-0.061000004,3.1364558,0,nan,nan,nan,0.0,0,3,0,0,1,17,0,0,0
2894030718,0,1695208549800000,8748291,496405228,176059317,563650,563650,0.047088623,0.23246293,0.9059806,1.1870887,0.64990234,0.9399414,0,0,0.46238515,-0.45000002,-0.008,-0.106000006,-3.1238167,0,nan,nan,nan,0.0,0,3,0,0,1,17,0,0,0
2894631669,0,1695208550400000,8748291,496405205,176059312,563780,563780,0.036468506,0.2080811,0.9059806,1.1858541,0.64990234,0.9399414,0,0,0.52876276,-0.40500003,-0.106000006,-0.323,-2.8856063,0,nan,nan,nan,0.0,0,3,0,0,1,17,0,0,0
2895033039,0,1695208550800000,8748291,496405191,176059305,563920,563920,0.037261963,0.2600476,0.9059806,1.1858541,0.64990234,0.9399414,0,0,0.500218,-0.36,-0.117000006,-0.32700002,-2.8273606,0,nan,nan,nan,0.0,0,3,0,0,1,17,0,0,0
2895622812,0,1695208551400000,8748291,496405175,176059297,564320,564320,0.04537964,0.6197286,0.90490204,1.1858541,0.64990234,0.9399414,0,0,1.2116048,-0.25300002,-0.096,-1.1810001,-2.7789292,0,nan,nan,nan,0.0,0,3,0,0,1,17,0,0,0
2896033023,0,1695208551800000,8748291,496405166,176059300,564720,564720,0.0501709,2.3294132,0.90490204,1.1870887,0.64990234,0.9399414,0,0,0.7848433,-0.143,0.033,-0.771,2.9147937,0,nan,nan,nan,0.0,0,3,0,0,1,17,0,0,0
2896637434,0,1695208552400000,8748291,496405156,176059307,565010,565010,0.04623413,2.2581875,0.90409225,1.1858541,0.64990234,0.9399414,0,0,0.53258145,-0.10700001,0.095000006,-0.513,2.4155307,0,nan,nan,nan,0.0,0,3,0,0,1,17,0,0,0
2897023942,0,1695208552800000,8748291,496405153,176059311,565220,565220,0.050628662,10.525706,0.90409225,1.1858541,0.64990234,0.9399414,0,0,0.473111,0.047000002,0.051000003,-0.46800002,0.82619184,0,nan,nan,nan,0.0,0,3,0,0,1,17,0,0,0
2897632850,0,1695208553400000,8748291,496405154,176059309,565600,565600,0.048828125,22.753088,0.90409225,1.1858541,0.64990234,0.9399414,0,0,0.5629094,0.045,-0.011000001,-0.56100005,-0.23974313,0,nan,nan,nan,0.0,0,3,0,0,1,17,0,0,0
2898032438,0,1695208553800000,8748291,496405155,176059308,565870,565870,0.051086426,36.647366,0.90409225,1.1870887,0.64990234,0.9399414,0,0,0.7029922,-0.013,0.035,-0.702,1.9264323,0,nan,nan,nan,0.0,0,3,0,0,1,17,0,0,0
2898630537,0,1695208554400000,8748291,496405155,176059305,566230,566230,0.048828125,25.685493,0.90409225,1.1870887,0.64990234,0.9399414,0,0,0.52481425,0.035,-0.026,-0.523,-0.638914,0,nan,nan,nan,0.0,0,3,0,0,1,17,0,0,0
2899028044,0,1695208554800000,8748291,496405155,176059302,566380,566380,0.050628662,13.048622,0.90409225,1.1879112,0.64990234,0.9399414,0,0,0.33582735,-0.062000003,-0.006,-0.33,-3.0451188,0,nan,nan,nan,0.0,0,3,0,0,1,17,0,0,0
2899622621,0,1695208555400000,8748291,496405149,176059309,566600,566600,0.047088623,1.3509471,0.90490204,1.1879112,0.64990234,0.9399414,0,0,0.4368993,-0.134,0.13000001,-0.395,2.3713448,0,nan,nan,nan,0.0,0,3,0,0,1,17,0,0,0
2900035093,0,1695208555800000,8748291,496405146,176059314,566740,566740,0.045806885,1.8486916,0.90409225,1.1870887,0.64990234,0.9399414,0,0,0.41964152,-0.093,0.127,-0.38900003,2.2028623,0,nan,nan,nan,0.0,0,3,0,0,1,17,0,0,0
2900636629,0,1695208556400000,8748291,496405149,176059309,567140,567140,0.043670654,0.4713508,0.90301144,1.1858541,0.64990234,0.9399414,0,0,0.85034466,0.20500001,-0.22500001,-0.794,-0.8318763,0,nan,nan,nan,0.0,0,3,0,0,1,17,0,0,0
2901029363,0,1695208556800000,8748291,496405155,176059299,567490,567490,0.046661377,1.6793729,0.90301144,1.1858541,0.64990234,0.9399414,0,0,0.909407,0.056,-0.157,-0.89400005,-1.2281759,0,nan,nan,nan,0.0,0,3,0,0,1,17,0,0,0
2901633085,0,1695208557400000,8748291,496405161,176059297,567900,567900,0.05569458,1.9893051,0.90301144,1.1870887,0.64990234,0.9399414,0,0,0.63542587,0.021000002,0.16600001,-0.61300004,1.4449587,0,nan,nan,nan,0.0,0,3,0,0,1,17,0,0,0
2902036852,0,1695208557800000,8748291,496405164,176059321,568110,568110,0.039611816,0.089336105,0.90409225,1.1870887,0.64990234,0.9399414,0,0,0.91530657,0.149,0.64900005,-0.628,1.345123,0,nan,nan,nan,0.0,0,3,0,0,1,17,0,0,0
2902636626,0,1695208558400000,8748291,496405183,176059402,568390,568390,0.024963379,0.012621776,0.90409225,1.1879112,0.64990234,0.9399414,0,0,1.4516895,0.509,1.3110001,-0.36,1.2004573,0,nan,nan,nan,0.0,0,3,0,0,1,17,0,0,0
2903038240,0,1695208558800000,8748291,496405202,176059481,568570,568570,0.024032593,0.008610459,0.90409225,1.1879112,0.64990234,0.9399414,0,0,1.7219123,0.537,1.582,-0.41700003,1.2435565,0,nan,nan,nan,0.0,0,3,0,0,1,17,0,0,0
2903637174,0,1695208559400000,8748291,496405235,176059618,568820,568820,0.025604248,0.006336565,0.90409225,1.1891437,0.64990234,0.9399414,0,0,2.0466897,0.74500006,1.8670001,-0.38500002,1.1911213,0,nan,nan,nan,0.0,0,3,0,0,1,17,0,0,0
