timestamp,timestamp_sample,device_id,magnetometer_ga[0],magnetometer_ga[1],magnetometer_ga[2],calibration_count
2771149116,2771149089,8944899,0.18278621,0.13681798,0.43615866,3
2771698930,2771698910,8944899,0.18176185,0.1366957,0.43563706,3
2772111899,2772111871,8944899,0.18167132,0.13609244,0.43584663,3
2772661370,2772661343,8944899,0.18066826,0.13585815,0.4355585,3
2773198952,2773142811,8944899,0.17952366,0.13459872,0.43515322,3
2773624269,2773624221,8944899,0.17891626,0.13308492,0.4358506,3
2774173582,2774173543,8944899,0.18080993,0.12163724,0.43714052,3
2774586255,2774586231,8944899,0.18954922,0.08062545,0.43992937,3
2775136879,2775136860,8944899,0.19735125,0.06771652,0.43738073,3
2775686375,2775686332,8944899,0.18002905,0.10870137,0.4368384,3
2776098908,2776098888,8944899,0.17860737,0.097184464,0.43988273,3
2776648732,2776648707,8944899,0.17941546,0.09245802,0.44067946,3
2777199129,2777199084,8944899,0.17629568,0.08510972,0.44239402,3
2777611729,2777611703,8944899,0.17695533,0.08089125,0.44462627,3
2778161639,2778161613,8944899,0.18060249,0.07749439,0.4427501,3
2778699469,2778642677,8944899,0.18241686,0.0743182,0.442441,3
2779123814,2779123788,8944899,0.18208061,0.06989901,0.44322556,3
2779674307,2779674286,8944899,0.18184806,0.072844625,0.44285718,3
2780086151,2780086127,8944899,0.18164887,0.075183935,0.44270343,3
2780636581,2780636558,8944899,0.1773431,0.08581121,0.44341326,3
2781186564,2781186539,8944899,0.18152401,0.08311648,0.44229782,3
2781599129,2781599108,8944899,0.18359432,0.07661797,0.442841,3
2782148654,2782148630,8944899,0.18350191,0.071766175,0.44312117,3
2782699451,2782699368,8944899,0.16994618,0.07417046,0.4457287,3
2783111849,2783111825,8944899,0.17275128,0.06570363,0.44551462,3
2783661410,2783661361,8944899,0.17465685,0.08557031,0.4421065,3
2784198861,2784142697,8944899,0.188831,0.068093725,0.44009596,3
2784624293,2784624269,8944899,0.18349169,0.06556759,0.4424041,3
2785174115,2785174092,8944899,0.1794973,0.07407742,0.44162217,3
2785585770,2785585744,8944899,0.18590309,0.07507048,0.44027025,3
2786136631,2786136611,8944899,0.18621157,0.07027224,0.4393844,3
2786686307,2786686282,8944899,0.17619988,0.06970942,0.44368294,3
2787098635,2787098615,8944899,0.1719327,0.06450084,0.44567028,3
2787648448,2787648423,8944899,0.1733895,0.0633792,0.44497636,3
2788198845,2788198825,8944899,0.17050798,0.065830976,0.44684762,3
2788611752,2788611725,8944899,0.17973845,0.067473084,0.4439805,3
2789161506,2789161482,8944899,0.17846228,0.0665132,0.4462593,3
2789698963,2789642560,8944899,0.17283177,0.062039703,0.4473178,3
2790123422,2790123397,8944899,0.17443004,0.05443962,0.44727674,3
2790673232,2790673212,8944899,0.17670023,0.05473701,0.44643548,3
2791085862,2791085744,8944899,0.1745743,0.063521564,0.44597945,3
2791636043,2791636023,8944899,0.27513224,0.057622705,0.39829534,3
2792186840,2792186813,8944899,0.30834213,0.074305914,0.37284866,3
2792598659,2792598640,8944899,0.30853233,0.07767669,0.37014484,3
2793148776,2793148752,8944899,0.31760365,0.08280102,0.36171988,3
2793698236,2793698216,8944899,0.26224577,0.086970404,0.4015117,3
2794111534,2794111510,8944899,0.17549384,0.08500262,0.44472605,3
2794661375,2794661348,8944899,0.07773531,0.060739804,0.4671747,3
2795198770,2795142388,8944899,0.078381,0.05986578,0.46747562,3
2795623424,2795623279,8944899,0.16333868,0.08453033,0.4484645,3
2796174050,2796174030,8944899,0.18107316,0.07340742,0.4426098,3
2796585626,2796585601,8944899,0.20044024,0.013219868,0.43893126,3
2797136942,2797136922,8944899,0.28720742,0.08580092,0.38426316,3
2797686112,2797686088,8944899,0.3168596,0.12482986,0.34793043,3
2798098407,2798098387,8944899,0.31948116,0.111446686,0.35154486,3
2798648399,2798648258,8944899,0.3377173,0.11021124,0.33187944,3
2799198968,2799198948,8944899,0.27910757,0.10663298,0.38734648,3
2799611463,2799611439,8944899,0.16349792,0.13777173,0.4375216,3
2800161494,2800161469,8944899,0.21145758,0.12383363,0.4212096,3
2800698989,2800642577,8944899,0.21562202,0.12135923,0.42090783,3
2801123396,2801123371,8944899,0.21190175,0.11066364,0.42545217,3
2801673603,2801673583,8944899,0.21664374,0.107289545,0.42338574,3
2802086113,2802086039,8944899,0.20860146,0.10895424,0.42524716,3
2802636553,2802636533,8944899,0.21635264,0.106283054,0.4240451,3
2803186133,2803186103,8944899,0.1816119,0.10087709,0.44015303,3
2803598449,2803598428,8944899,0.090827145,0.113034956,0.45957977,3
2804149006,2804148955,8944899,0.07439398,0.10881394,0.46370336,3
2804698526,2804698506,8944899,0.082423456,0.109965965,0.46147773,3
2805110631,2805110603,8944899,0.08502079,0.0975747,0.46276018,3
2805660506,2805660442,8944899,0.09337123,0.10410459,0.45981055,3
2806199173,2806142411,8944899,0.109819315,0.10700112,0.45667845,3
2806623148,2806623118,8944899,0.112978436,0.108864896,0.45584092,3
2807173410,2807173390,8944899,0.09828187,0.11364539,0.45730886,3
2807586204,2807586180,8944899,0.10925316,0.12081397,0.4549679,3
2808136573,2808136554,8944899,0.10238363,0.12565368,0.45321104,3
2808686091,2808686067,8944899,0.11351928,0.116648875,0.45285055,3
2809098399,2809098379,8944899,0.15967438,0.1295883,0.43941104,3
2809648698,2809648673,8944899,0.07859496,0.084935755,0.46412927,3
2810198384,2810198362,8944899,0.015576709,0.09217587,0.46556714,3
2810611685,2810611660,8944899,0.023511242,0.11612896,0.46328223,3
2811161376,2811161281,8944899,0.072018094,0.19375461,0.43849167,3
2811697940,2811642246,8944899,0.10150366,0.17828332,0.43791136,3
2812123369,2812123233,8944899,0.10064176,0.17944427,0.4362856,3
2812673827,2812673808,8944899,0.15386133,0.14543757,0.43291587,3
2813086357,2813086332,8944899,0.12580697,0.14397973,0.44045296,3
2813636118,2813636098,8944899,0.038619548,0.12208752,0.45869723,3
2814186360,2814186335,8944899,0.005695384,0.13344376,0.4587119,3
2814597941,2814597921,8944899,0.059845608,0.12861598,0.4600781,3
2815148460,2815148436,8944899,0.01827636,0.15654813,0.4518486,3
2815698241,2815698220,8944899,0.0075718192,0.14661834,0.4545666,3
2816110583,2816110558,8944899,0.020462763,0.14795431,0.45610628,3
2816661411,2816661386,8944899,0.029133018,0.13433972,0.45712104,3
2817198658,2817142037,8944899,0.01751009,0.12831584,0.4595743,3
2817623109,2817623083,8944899,-0.0868652,0.108643696,0.45197165,3
2818172754,2818172734,8944899,-0.116376966,0.1070326,0.4447491,3
2818586175,2818586150,8944899,-0.12515444,0.16486089,0.42839822,3
2819135965,2819135945,8944899,-0.14014289,0.14702809,0.42612496,3
2819685718,2819685692,8944899,-0.15186203,0.14998898,0.42243272,3
2820098095,2820098075,8944899,-0.14716664,0.15057491,0.424311,3
2820648440,2820648415,8944899,-0.16586904,0.14447296,0.41807595,3
2821198457,2821198436,8944899,-0.13367054,0.14249153,0.43000987,3
2821611409,2821611383,8944899,-0.12776391,0.14696346,0.43138006,3
2822161389,2822161365,8944899,-0.13076054,0.14727226,0.43102977,3
2822697787,2822642033,8944899,-0.122696035,0.1359754,0.43587786,3
2823123160,2823123107,8944899,-0.11960464,0.12828808,0.43928465,3
2823673683,2823673663,8944899,-0.18432122,-0.024608545,0.41968977,3
2824086273,2824086248,8944899,-0.1516843,-0.045384202,0.4306693,3
2824635546,2824635526,8944899,-0.01826166,-0.14014174,0.43941572,3
2825185236,2825185212,8944899,0.10514913,-0.12909469,0.43908828,3
2825598725,2825598705,8944899,0.12380696,-0.08756192,0.44765645,3
2826148345,2826148320,8944899,0.126819,-0.06483038,0.45151615,3
2826697794,2826697774,8944899,0.12931873,-0.07907362,0.44537568,3
2827111519,2827111467,8944899,0.07512269,-0.09067111,0.4530807,3
2827660476,2827660451,8944899,-0.006242915,-0.09687239,0.45322457,3
2828198268,2828142170,8944899,-0.007884371,-0.09500315,0.45422435,3
2828622811,2828622784,8944899,-0.0069052745,-0.12767203,0.44582966,3
2829173740,2829173720,8944899,-0.010196255,-0.111431666,0.4508303,3
2829586254,2829586230,8944899,-0.021031698,-0.10179275,0.4517021,3
2830135486,2830135466,8944899,-0.024131082,-0.10514859,0.4507301,3
2830685202,2830685175,8944899,-0.01297019,-0.0938062,0.45424798,3
2831097632,2831097612,8944899,-0.027260773,-0.09325525,0.45272356,3
2831648625,2831648581,8944899,-0.13552043,-0.102115646,0.4250962,3
2832197889,2832197869,8944899,-0.14507869,-0.085702196,0.42533875,3
2832611666,2832611639,8944899,-0.16161172,-0.10059843,0.41695434,3
2833160476,2833160452,8944899,-0.17420782,-0.101279765,0.4102391,3
2833698080,2833641946,8944899,-0.17914176,-0.09268623,0.41025057,3
2834123456,2834123430,8944899,-0.14042877,-0.08757306,0.42735592,3
2834673005,2834672985,8944899,-0.1374935,-0.10394351,0.42446813,3
2835085671,2835085622,8944899,-0.14346401,-0.109101765,0.42046162,3
2835635201,2835635178,8944899,-0.14563513,-0.12136885,0.41680983,3
2836185791,2836185766,8944899,-0.14324473,-0.11073832,0.4211177,3
2836597723,2836597703,8944899,-0.11936683,-0.22898881,0.3790971,3
2837148486,2837148462,8944899,0.074628465,-0.22058007,0.40650305,3
2837698066,2837698046,8944899,0.25022563,-0.15858574,0.37978372,3
2838110227,2838110201,8944899,0.26360902,-0.12360218,0.3864529,3
2838661411,2838661385,8944899,0.24338515,-0.14092158,0.39156398,3
2839198526,2839141929,8944899,0.23868299,-0.17030309,0.38253888,3
2839622874,2839622850,8944899,0.26066518,-0.16366123,0.37267557,3
2840172503,2840172483,8944899,0.23010905,-0.1742062,0.38686162,3
2840585197,2840585169,8944899,0.1318515,-0.13871121,0.43485272,3
2841135193,2841135172,8944899,0.009600722,-0.17864054,0.42888448,3
2841686315,2841686289,8944899,-0.007681012,-0.16552548,0.43294033,3
2842098009,2842097989,8944899,0.016120968,-0.16949423,0.4328331,3
2842647533,2842647508,8944899,0.03412449,-0.16236839,0.43457642,3
2843198017,2843197997,8944899,0.20939298,-0.19012429,0.38774133,3
2843610410,2843610384,8944899,0.27680144,-0.15130448,0.36719918,3
2844159995,2844159971,8944899,0.22830328,-0.1543917,0.39751485,3
2844697791,2844641757,8944899,0.1067424,-0.14440688,0.43692037,3
2845123449,2845123424,8944899,0.031162063,-0.17508425,0.430163,3
2846085711,2846085665,8944899,0.06823435,-0.13329652,0.44496226,3
2846635083,2846635063,8944899,0.075360775,-0.13789055,0.44318485,3
2847185231,2847185206,8944899,0.06998808,-0.14739957,0.43998098,3
2847597760,2847597713,8944899,0.080021605,-0.15549572,0.43629226,3
2848148224,2848148200,8944899,0.09099136,-0.14341964,0.43959388,3
2848698211,2848698190,8944899,0.111943424,-0.1624194,0.42835188,3
2849111385,2849110751,8944899,0.10990002,-0.15676703,0.43180534,3
2849660604,2849660575,8944899,0.122994155,-0.15087536,0.43092513,3
2850197945,2850141474,8944899,0.14964327,-0.15573555,0.42395875,3
2850623418,2850623393,8944899,0.13648787,-0.15785782,0.42671385,3
2851173224,2851173204,8944899,0.14167257,-0.1394678,0.43239033,3
2851585383,2851585346,8944899,0.12943488,-0.14316964,0.43315518,3
2852135458,2852135412,8944899,0.11158619,-0.13651383,0.4383563,3
2852684899,2852684874,8944899,0.15101528,-0.1432092,0.4267104,3
2853097285,2853097265,8944899,0.15826048,-0.13702928,0.42844042,3
2853647836,2853647812,8944899,0.14090532,-0.13285553,0.43356502,3
2854197359,2854197319,8944899,0.13863494,-0.13441709,0.43317187,3
2854610698,2854610672,8944899,0.13496359,-0.13639005,0.43365195,3
2855160336,2855160311,8944899,0.13341783,-0.1415388,0.4333857,3
2855697546,2855641578,8944899,0.13439322,-0.15952149,0.42561316,3
2856123240,2856123216,8944899,0.13794905,-0.15636046,0.42541176,3
2856673012,2856672991,8944899,0.13503009,-0.16917685,0.4214702,3
2857085281,2857085255,8944899,0.12910949,-0.15601055,0.4276623,3
2857636268,2857636247,8944899,0.12185665,-0.14124535,0.43552014,3
2858184932,2858184907,8944899,0.14464906,-0.1330953,0.43323836,3
2858597511,2858597491,8944899,0.15804589,-0.14678884,0.4254426,3
2859148198,2859148171,8944899,0.14211674,-0.1317739,0.43365806,3
2859697568,2859697549,8944899,0.1458155,-0.13856651,0.4304662,3
2860110012,2860109987,8944899,0.14748734,-0.15337248,0.4261649,3
2860660514,2860660489,8944899,0.14401558,-0.13300423,0.4322675,3
2861197733,2861141289,8944899,0.14318348,-0.13780098,0.43178424,3
2861622182,2861622158,8944899,0.14559796,-0.1454015,0.4292416,3
2862172501,2862172476,8944899,0.15405262,-0.1490129,0.42566237,3
2862585021,2862584994,8944899,0.15499271,-0.14262626,0.42571476,3
2863134852,2863134832,8944899,0.15585051,-0.13667153,0.4269317,3
2863685333,2863685308,8944899,0.14981328,-0.13755018,0.42830348,3
2864097567,2864097547,8944899,0.14462468,-0.13846174,0.42947257,3
2864647336,2864647306,8944899,0.14663024,-0.14230013,0.42774737,3
2865197513,2865197493,8944899,0.14395736,-0.14563212,0.42869,3
2865609892,2865609867,8944899,0.14517939,-0.14040329,0.43036768,3
2866159894,2866159869,8944899,0.14769556,-0.13571234,0.4318415,3
2866697320,2866641190,8944899,0.1422544,-0.14421074,0.42957488,3
2867122681,2867122656,8944899,0.14423613,-0.146663,0.42795035,3
2867672853,2867672832,8944899,0.14527047,-0.1382941,0.43069103,3
2868085262,2868085237,8944899,0.1489787,-0.13554503,0.43095383,3
2868635217,2868635197,8944899,0.15090051,-0.13797483,0.4302282,3
2869184897,2869184872,8944899,0.15540111,-0.14185931,0.4264728,3
2869597480,2869597460,8944899,0.15696959,-0.13866301,0.42713752,3
2870147521,2870147497,8944899,0.17930643,-0.14029591,0.4163964,3
2870697235,2870697215,8944899,0.19931361,-0.13747501,0.4145004,3
2871110266,2871110219,8944899,0.2520291,-0.10623814,0.39589024,3
2871660070,2871660046,8944899,0.22808355,-0.12931123,0.40346408,3
2872197489,2872141257,8944899,0.15963496,-0.16680351,0.41510424,3
2872622908,2872622882,8944899,0.071322024,-0.140791,0.44219133,3
2873172492,2873172472,8944899,0.0022406878,-0.11745322,0.4492192,3
2873584869,2873584844,8944899,-0.051427435,-0.12813805,0.4399196,3
2874135414,2874135394,8944899,-0.08968963,-0.14198634,0.42616427,3
2874684472,2874684447,8944899,-0.008197012,-0.19013518,0.42129126,3
2875097778,2875097758,8944899,0.04406581,-0.20449106,0.416044,3
2875647795,2875647769,8944899,0.086047925,-0.21835203,0.4054093,3
2876197748,2876197727,8944899,0.16923216,-0.17011407,0.41125283,3
2876610183,2876610159,8944899,0.21710466,-0.08702413,0.41982672,3
2877159778,2877159752,8944899,0.19994529,0.0037966121,0.4387786,3
2877697198,2877641244,8944899,0.20782316,0.049252715,0.43406287,3
2878122652,2878122627,8944899,0.16501084,0.082441114,0.44703084,3
2878672401,2878672376,8944899,0.1636015,0.056414764,0.44832277,3
2879085005,2879084977,8944899,0.16338585,0.06401342,0.4497961,3
2879634836,2879634816,8944899,0.1690277,0.0974291,0.4420982,3
2880185000,2880184974,8944899,0.17460822,0.098764926,0.43977726,3
2880597357,2880597337,8944899,0.17273627,0.10270984,0.44246012,3
2881147195,2881147142,8944899,0.19752996,0.08047162,0.4362287,3
2881697490,2881697470,8944899,0.18612899,0.1026747,0.43543586,3
2882109981,2882109957,8944899,0.18283398,0.11576237,0.4341515,3
2882659732,2882659707,8944899,0.17571628,0.110202104,0.4374276,3
2883197710,2883141220,8944899,0.17536044,0.107404664,0.43931752,3
2883622273,2883622247,8944899,0.16653967,0.098461315,0.44535217,3
2884171740,2884171720,8944899,0.17077015,0.10008941,0.44322315,3
2884584422,2884584394,8944899,0.17261651,0.10457892,0.44158036,3
2885134980,2885134961,8944899,0.16710721,0.10082282,0.44238764,3
2885684904,2885684879,8944899,0.17032407,0.10367145,0.44192284,3
2886097184,2886097164,8944899,0.1688315,0.10600658,0.4410039,3
2886647163,2886647138,8944899,0.17726605,0.1090765,0.43792236,3
2887196822,2887196802,8944899,0.18085246,0.097748324,0.43881387,3
2887609511,2887609486,8944899,0.19871598,0.07979922,0.43696293,3
2888160163,2888160136,8944899,0.21862955,0.04548945,0.43195054,3
2888696878,2888641079,8944899,0.26331463,0.0024310618,0.4085555,3
2889122463,2889122350,8944899,0.14134562,-0.043277964,0.45154592,3
2889671996,2889671953,8944899,0.1499683,-0.07008676,0.44753957,3
2890084655,2890084631,8944899,0.2013525,-0.059682637,0.43303475,3
2890634865,2890634845,8944899,0.17623094,-0.08504414,0.43738902,3
2891185466,2891185440,8944899,0.15904193,-0.08362913,0.44288653,3
2891597267,2891597247,8944899,0.1673018,-0.08686525,0.43931383,3
2892146759,2892146735,8944899,0.17441893,-0.09375238,0.43483946,3
2892697389,2892697369,8944899,0.18972999,-0.10116043,0.42926574,3
2893109718,2893109693,8944899,0.17042305,-0.13126053,0.42585754,3
2893660201,2893660176,8944899,0.12515855,-0.15921159,0.4280826,3
2894197496,2894141142,8944899,0.05929525,-0.18761784,0.42456976,3
2894621988,2894621964,8944899,0.007943444,-0.18837325,0.42322057,3
2895171953,2895171933,8944899,-0.04417239,-0.18882713,0.41841507,3
2895585009,2895584984,8944899,-0.034273032,-0.17879145,0.42467272,3
2896134525,2896134503,8944899,-0.074515894,-0.16155875,0.42247835,3
2896684763,2896684738,8944899,-0.088817604,-0.1620796,0.4192527,3
2897096959,2897096939,8944899,-0.07511051,-0.15822506,0.4247168,3
2897647598,2897647573,8944899,-0.06586144,-0.15835677,0.42699453,3
2898197137,2898197112,8944899,-0.06961946,-0.16084225,0.42460713,3
2898609243,2898609216,8944899,-0.05803666,-0.15004699,0.43214986,3
2899159276,2899159256,8944899,-0.052147027,-0.16779391,0.42554015,3
2899697053,2899640814,8944899,-0.075777344,-0.16119249,0.4229613,3
2900122423,2900122398,8944899,-0.08531879,-0.16038878,0.42041323,3
2900671974,2900671954,8944899,-0.091464266,-0.16242091,0.41841763,3
2901084215,2901084191,8944899,-0.040377993,-0.16109928,0.4300864,3
2901634743,2901634721,8944899,-0.023249472,-0.20229091,0.41426098,3
2902184266,2902184242,8944899,0.013228804,-0.20774344,0.41344127,3
2902596728,2902596708,8944899,0.027767545,-0.20768303,0.415,3
2903146754,2903146730,8944899,0.0818804,-0.19175385,0.41978395,3
2903696758,2903696738,8944899,0.10668336,-0.20649004,0.409581,3
2904110017,2904109992,8944899,0.19493686,-0.17561892,0.3988422,3
2904659361,2904659312,8944899,0.20001063,-0.16106656,0.40412682,3
2905197153,2905140739,8944899,0.19629984,-0.14987968,0.4101207,3
2905621938,2905621912,8944899,0.2131514,-0.12475627,0.41131175,3
2906172411,2906172385,8944899,0.2212811,-0.13027385,0.40764433,3
2906584931,2906584907,8944899,0.16873677,-0.1217148,0.42971537,3
2907134345,2907134297,8944899,0.20060924,-0.12788957,0.41706264,3
2907684285,2907684260,8944899,0.09243777,-0.12476264,0.4437025,3
2908096807,2908096756,8944899,0.08212227,-0.13396636,0.4414886,3
2908646660,2908646635,8944899,0.04101384,-0.13167742,0.44554538,3
2909197277,2909197257,8944899,0.07577389,-0.13375326,0.44478598,3
2909609667,2909609641,8944899,0.09189515,-0.13808353,0.44078848,3
2910159694,2910159670,8944899,0.1221049,-0.15095292,0.4313588,3
2910697159,2910640560,8944899,0.12739122,-0.16419761,0.4252319,3
2911121757,2911121731,8944899,0.15368184,-0.15234682,0.4229096,3
2911672309,2911672260,8944899,0.20261595,-0.16233832,0.40229023,3
2912083837,2912083793,8944899,0.18908952,-0.15680431,0.40952414,3
2912634271,2912634225,8944899,0.17219,-0.154055,0.4184037,3
2913184684,2913184660,8944899,0.14950229,-0.15327126,0.42435735,3
2913596941,2913596921,8944899,0.13920848,-0.14884955,0.42836526,3
2914147210,2914147185,8944899,0.13271427,-0.14722298,0.43028998,3
2914696882,2914696862,8944899,0.17013198,-0.120303266,0.42911804,3
2915109289,2915109265,8944899,0.1749183,-0.14918238,0.41870862,3
2915659814,2915659787,8944899,0.14590056,-0.17058878,0.4187891,3
2916196560,2916140525,8944899,0.10109935,-0.18068439,0.42386532,3
2916622293,2916622265,8944899,0.06219767,-0.17176136,0.43182886,3
2917172222,2917172197,8944899,0.036542244,-0.17113276,0.4331496,3
2917584645,2917584620,8944899,-0.014699233,-0.17671958,0.42723185,3
2918134352,2918134332,8944899,-0.038895365,-0.1625183,0.42961892,3
2918684492,2918684468,8944899,-0.03039675,-0.16895053,0.4287749,3
2919096683,2919096663,8944899,-0.017390007,-0.17575277,0.427868,3
2919646683,2919646659,8944899,0.008274052,-0.18733335,0.42446002,3
2920196314,2920196294,8944899,-0.0022050303,-0.18891566,0.4241965,3
2920609427,2920609377,8944899,-0.007902317,-0.18112192,0.426633,3
2921158956,2921158936,8944899,-0.033690166,-0.1668694,0.42919248,3
2921696933,2921640453,8944899,-0.0715938,-0.16404332,0.42387787,3
2922121969,2922121944,8944899,-0.08792418,-0.15071063,0.42518568,3
2922671499,2922671479,8944899,-0.10267102,-0.13520874,0.42659724,3
2923084092,2923084067,8944899,-0.10189644,-0.12914045,0.42757818,3
2923634658,2923634639,8944899,-0.103675775,-0.13155451,0.4276462,3
2924183736,2924183712,8944899,-0.105886854,-0.12868369,0.4271921,3
2924596881,2924596861,8944899,-0.11043954,-0.12775512,0.42609,3
2925146379,2925146355,8944899,-0.107228935,-0.13177407,0.426304,3
2925697137,2925697118,8944899,-0.12795755,-0.11129314,0.4255274,3
2926108981,2926108955,8944899,-0.16324136,-0.06461725,0.42445618,3
2926659476,2926659450,8944899,-0.1813595,0.056951333,0.42608732,3
2927197144,2927140597,8944899,-0.13832732,0.112769656,0.43644807,3
2927621698,2927621645,8944899,-0.10449419,0.14720866,0.43876186,3
2928171112,2928171085,8944899,-0.09899606,0.14735626,0.43970868,3
2928584228,2928584174,8944899,-0.09785429,0.14977403,0.43937716,3
2929134044,2929134024,8944899,-0.082717516,0.15540107,0.44165277,3
2929683776,2929683752,8944899,-0.08394078,0.17185089,0.437269,3
2930096229,2930096209,8944899,-0.08513825,0.16713949,0.4360865,3
2930646349,2930646325,8944899,-0.08920915,0.17319496,0.4342574,3
2931197381,2931197360,8944899,-0.09818214,0.16961163,0.43421558,3
2931609400,2931609370,8944899,-0.10503575,0.15878594,0.43587473,3
2932159191,2932159171,8944899,-0.11029613,0.15954834,0.4335516,3
2932696592,2932640284,8944899,-0.11039255,0.15504023,0.4345323,3
2933121998,2933121971,8944899,-0.10621153,0.15827286,0.43485752,3
2933672204,2933672174,8944899,-0.12825349,0.13325207,0.4329556,3
2934083754,2934083729,8944899,-0.15872861,0.04071182,0.433745,3
2934633553,2934633533,8944899,-0.15457797,-0.06738802,0.4254212,3
2935184358,2935184305,8944899,-0.09598632,-0.1352499,0.42687538,3
2935596982,2935596962,8944899,-0.07185903,-0.14101039,0.4305033,3
2936146720,2936146696,8944899,-0.06246583,-0.15547651,0.42724937,3
2936696304,2936696284,8944899,-0.062418357,-0.1505532,0.4295769,3
2937108945,2937108921,8944899,-0.06814045,-0.15523726,0.42654732,3
2937658576,2937658556,8944899,-0.06707547,-0.1550045,0.42683795,3
2938196171,2938140228,8944899,-0.062160123,-0.15659586,0.4274554,3
2938621624,2938621599,8944899,-0.061729264,-0.1539526,0.42852476,3
2939171458,2939171432,8944899,-0.05825137,-0.15700218,0.4285509,3
2939583784,2939583760,8944899,-0.046364956,-0.15997586,0.42964286,3
2940133534,2940133512,8944899,-0.04202378,-0.15882382,0.4303436,3
2940683918,2940683893,8944899,-0.073556654,-0.15646231,0.4262727,3
2941096399,2941096378,8944899,-0.07178585,-0.15497257,0.42498326,3
2941647158,2941647020,8944899,-0.059807174,-0.15562946,0.4280656,3
2942196349,2942196329,8944899,-0.06041362,-0.15665053,0.42705232,3
2942608650,2942608620,8944899,-0.06809952,-0.15157276,0.42835134,3
2943158493,2943158473,8944899,-0.11070084,-0.16615129,0.41249,3
2943696750,2943640183,8944899,-0.11995411,-0.15993999,0.41149282,3
2944121586,2944121544,8944899,-0.06828743,-0.15759209,0.42621198,3
2944671398,2944671373,8944899,-0.077947035,-0.16425121,0.42104447,3
2945209107,2945152779,8944899,-0.036230918,-0.13326906,0.4400703,3
2945633721,2945633701,8944899,-0.039474614,-0.0712104,0.45568222,3
2946184339,2946184314,8944899,-0.0690248,-0.16137491,0.4241372,3
2946596214,2946596195,8944899,-0.068008855,-0.15377389,0.42874292,3
2947146747,2947146722,8944899,-0.06279218,-0.1397551,0.4333017,3
2947696120,2947696099,8944899,-0.052439827,-0.26043266,0.37758622,3
2948108389,2948108364,8944899,-0.04912598,-0.25647834,0.37953857,3
2948659378,2948659358,8944899,-0.05058907,-0.2380307,0.3901526,3
2949196801,2949140235,8944899,-0.05608154,-0.21415937,0.40303802,3
2949621169,2949621144,8944899,-0.06306035,-0.19977356,0.40890184,3
2950171653,2950171628,8944899,-0.08619105,-0.17542714,0.41504842,3
2950583438,2950583386,8944899,-0.107660204,-0.17132556,0.41170377,3
2951133814,2951133763,8944899,-0.08487748,-0.14416827,0.42699116,3
2951683225,2951683198,8944899,-0.09295076,-0.14072247,0.42749912,3
2952096321,2952096301,8944899,-0.10396705,-0.14274277,0.42316735,3
2952646229,2952646205,8944899,-0.11843383,-0.12730785,0.42340317,3
2953196696,2953196676,8944899,-0.119869575,-0.12807356,0.4221282,3
2953608446,2953608421,8944899,-0.11901637,-0.1226898,0.4254554,3
2954158701,2954158681,8944899,-0.12255276,-0.12283598,0.42435375,3
2954696557,2954640080,8944899,-0.13049929,-0.121502094,0.42179844,3
2955121757,2955121703,8944899,-0.13238665,-0.13149078,0.41862684,3
2955670841,2955670816,8944899,-0.13935956,-0.1448061,0.40999347,3
2956084044,2956084020,8944899,-0.12833436,-0.1347501,0.41724697,3
2956633207,2956633162,8944899,-0.11602057,-0.13824363,0.42046928,3
2957183648,2957183623,8944899,-0.11709455,-0.13530469,0.42196128,3
2957596255,2957596206,8944899,-0.10157586,-0.1298533,0.4282746,3
2958146078,2958146053,8944899,-0.10190693,-0.13609202,0.42659467,3
2958696171,2958696150,8944899,-0.10281584,-0.14274709,0.42368934,3
2959108221,2959108196,8944899,-0.115166865,-0.1723569,0.40684664,3
2959659121,2959659101,8944899,-0.11230965,-0.15954232,0.41315535,3
2960196052,2960139895,8944899,-0.10943846,-0.15063797,0.41843477,3
2960621659,2960621633,8944899,-0.106131844,-0.15552635,0.41783673,3
2961171359,2961171334,8944899,-0.110142045,-0.15604171,0.41527894,3
2961583713,2961583688,8944899,-0.11593238,-0.15282369,0.41492563,3
2962133446,2962133407,8944899,-0.10476562,-0.13585871,0.42482528,3
2962684088,2962684063,8944899,-0.10286612,-0.13838746,0.42456883,3
2963096577,2963096558,8944899,-0.090569906,-0.14523564,0.4248153,3
2963646586,2963646538,8944899,-0.08694386,-0.14852384,0.4250753,3
2964196045,2964196025,8944899,-0.09205332,-0.14607558,0.42448336,3
2964608498,2964608473,8944899,-0.09572913,-0.1460845,0.42480314,3
2965158060,2965158040,8944899,-0.09718406,-0.14071429,0.42542645,3
2965708524,2965708499,8944899,-0.10229007,-0.13127825,0.4265301,3
2966121355,2966121331,8944899,-0.10236146,-0.13801739,0.42484143,3
2966670908,2966670880,8944899,-0.11044773,-0.11213936,0.43144056,3
2967083880,2967083855,8944899,-0.12303564,-0.094057836,0.43138462,3
2967633513,2967633493,8944899,-0.11593738,-0.07444563,0.4390849,3
2968183112,2968183087,8944899,-0.12540655,-0.035729464,0.44352195,3
2968596622,2968596602,8944899,-0.12046892,-0.020419158,0.44574985,3
2969145906,2969145765,8944899,-0.12608632,0.005464412,0.4460541,3
2969696312,2969696293,8944899,-0.120625705,0.036933273,0.44798848,3
2970108832,2970108807,8944899,-0.121774994,0.04983774,0.44726068,3
2970658473,2970658453,8944899,-0.12013236,0.072887585,0.44633594,3
2971196161,2971139636,8944899,-0.10183581,0.07679198,0.45118833,3
2971621413,2971621363,8944899,-0.0756116,0.12532656,0.45025194,3
2972171511,2972171483,8944899,-0.082061656,0.14268549,0.44402617,3
2972582896,2972582871,8944899,-0.08404056,0.14110139,0.44577718,3
2973133997,2973133977,8944899,-0.091252625,0.12363977,0.44763553,3
2973683903,2973683878,8944899,-0.108379506,0.10899678,0.44516066,3
2974096171,2974096152,8944899,-0.09707294,0.12248811,0.446162,3
2974646751,2974646727,8944899,-0.05217722,0.109129,0.4579449,3
2975195464,2975195444,8944899,0.029236801,0.12818305,0.4597281,3
2975608817,2975608789,8944899,-0.028111894,0.11609351,0.45969862,3
2976158245,2976158224,8944899,-0.052093353,0.104916036,0.4575465,3
2976708222,2976708194,8944899,-0.084635876,0.097643994,0.45376712,3
2977121371,2977121346,8944899,-0.12719563,0.09281565,0.44184396,3
2977671806,2977671779,8944899,-0.15736946,0.10239195,0.43005505,3
2979183830,2979183804,8944899,-0.1364934,0.1043633,0.4374043,3
2979595710,2979595689,8944899,-0.1254188,0.10322101,0.44137773,3
2980146342,2980146317,8944899,-0.088163175,0.09890577,0.452484,3
2980696131,2980696093,8944899,-0.10586637,0.104648545,0.44580653,3
2981108493,2981108468,8944899,-0.113116644,0.10453209,0.44455066,3
2981658249,2981658227,8944899,-0.117834665,0.09495385,0.44397825,3
2982195269,2982139330,8944899,-0.113253236,0.09251505,0.44618365,3
2982621495,2982621470,8944899,-0.12058548,0.09736971,0.4427728,3
2983171482,2983171457,8944899,-0.16041191,0.16640301,0.4134753,3
2983707998,2983652171,8944899,-0.14188562,0.14018393,0.42732444,3
2984132976,2984132956,8944899,-0.13464564,0.16400194,0.4234648,3
2984683726,2984683701,8944899,-0.10764457,0.18639459,0.42476046,3
2985096566,2985096547,8944899,-0.1117767,0.17842972,0.42593458,3
2985646106,2985646079,8944899,-0.14656536,0.10779128,0.4328514,3
2986195687,2986195667,8944899,-0.08307298,0.12523933,0.44946232,3
2986608679,2986608654,8944899,-0.09272676,0.116820365,0.44849178,3
2987158846,2987158826,8944899,-0.077220105,0.10444054,0.45315865,3
2987695219,2987639507,8944899,-0.057149377,0.053026415,0.46186787,3
2988120353,2988120328,8944899,-0.058638502,0.037890427,0.46246898,3
2988671367,2988671343,8944899,-0.06861546,0.004074122,0.45954275,3
2989207638,2989151647,8944899,-0.13856414,0.0090328595,0.4410742,3
2989633399,2989633226,8944899,-0.15689828,0.0071795927,0.4344047,3
2990183811,2990183784,8944899,-0.10395134,-0.006672675,0.45195577,3
2990596085,2990596044,8944899,-0.11856578,-0.032007836,0.44395393,3
2991145540,2991145513,8944899,-0.13795921,-0.051433843,0.43527249,3
2991696086,2991696066,8944899,-0.10249611,-0.038528606,0.44839978,3
2992108603,2992108554,8944899,-0.090220176,-0.019846722,0.4541475,3
2992657689,2992657669,8944899,-0.11428467,-0.025072187,0.44748533,3
2993195192,2993139170,8944899,-0.10520052,0.006269164,0.45169923,3
2993621355,2993621329,8944899,-0.15027396,-0.024988765,0.43531844,3
2994171564,2994171538,8944899,-0.11867465,-0.0155646475,0.4467259,3
2994583037,2994583010,8944899,-0.12596856,-0.04417861,0.44127184,3
2995132860,2995132840,8944899,-0.09809405,-0.056936834,0.4462045,3
2995683451,2995683425,8944899,-0.10627142,-0.085872136,0.43880507,3
2996095773,2996095753,8944899,-0.080342986,-0.07763948,0.44589993,3
2996645372,2996645346,8944899,-0.092597745,-0.1295324,0.42961082,3
2997195693,2997195672,8944899,-0.10715951,-0.12189943,0.42906326,3
2997608046,2997608021,8944899,-0.09659841,-0.1268678,0.43144354,3
2998157556,2998157536,8944899,-0.065029204,-0.09660288,0.4457984,3
2998695176,2998639158,8944899,-0.0826412,-0.12694192,0.43344662,3
2999121463,2999121438,8944899,-0.10125562,-0.11552863,0.43264046,3
2999670722,2999670696,8944899,-0.06327029,-0.10658597,0.44429633,3
3000207914,3000151996,8944899,-0.061811145,-0.1433504,0.43291765,3
3000633426,3000633406,8944899,-0.059746224,-0.1298697,0.4378448,3
3001182929,3001182881,8944899,-0.07318977,-0.1292882,0.43493515,3
3001595359,3001595339,8944899,-0.08918215,-0.1368908,0.42970267,3
3002145559,3002145534,8944899,-0.019574327,-0.1217786,0.44600415,3
3002695321,3002695281,8944899,-0.04191205,-0.11554754,0.44531325,3
3003107435,3003107410,8944899,-0.05961001,-0.11867261,0.43876278,3
3003658199,3003658179,8944899,-0.069482185,-0.11861634,0.43953675,3
3004207610,3004207585,8944899,-0.086566076,-0.13681972,0.4300519,3
3004620224,3004620199,8944899,-0.08561307,-0.120265365,0.4361904,3
3005170230,3005170205,8944899,-0.09217991,-0.13118753,0.43122235,3
3005582622,3005582597,8944899,-0.081749946,-0.12770687,0.43487582,3
3006132373,3006132353,8944899,-0.06806636,-0.11499605,0.43997473,3
3006683114,3006683090,8944899,-0.06785212,-0.11795323,0.4401049,3
3007095183,3007095161,8944899,-0.08093094,-0.119392715,0.43642047,3
3007644889,3007644864,8944899,-0.087324366,-0.12217176,0.43414828,3
3008195282,3008195262,8944899,-0.08218158,-0.1252263,0.43495485,3
3008607505,3008607481,8944899,-0.083979756,-0.13195895,0.43248326,3
3009158046,3009158026,8944899,-0.095262,-0.13118371,0.42967167,3
3009695461,3009639152,8944899,-0.083221816,-0.12265732,0.4354859,3
3010120018,3010119993,8944899,-0.07943874,-0.14004663,0.43093482,3
3010669794,3010669769,8944899,-0.09200392,-0.14428777,0.42574033,3
3011207895,3011151381,8944899,-0.07756289,-0.14809774,0.42797285,3
3011632692,3011632654,8944899,-0.078880906,-0.1385544,0.4314905,3
3012183232,3012183207,8944899,-0.08553916,-0.12356219,0.43440557,3
3012595690,3012595671,8944899,-0.040356252,-0.1169203,0.44579858,3
3013144877,3013144853,8944899,0.08837314,-0.13372579,0.4422336,3
3013695425,3013695405,8944899,0.12869495,-0.21612151,0.40135688,3
3014107630,3014107605,8944899,0.14817263,-0.18692419,0.41137227,3
3014658239,3014658219,8944899,0.16649625,-0.13087042,0.42784128,3
3015208398,3015208225,8944899,0.17686221,-0.10592385,0.43185845,3
3015620447,3015620396,8944899,0.16979417,-0.054212004,0.4447251,3
3016169830,3016169806,8944899,0.20219484,0.0072333924,0.43877032,3
3016582987,3016582961,8944899,0.22160442,0.045054205,0.43039912,3
3017132732,3017132712,8944899,0.20243856,0.05498089,0.43804297,3
3017682531,3017682506,8944899,0.14758772,0.124011576,0.4446114,3
3018095091,3018095070,8944899,0.1073292,0.16148603,0.4429718,3
3018645749,3018645724,8944899,0.055792045,0.17580336,0.44540417,3
3019195223,3019195203,8944899,0.038591944,0.18415484,0.4454853,3
3019608218,3019608193,8944899,0.015258379,0.20568596,0.4372944,3
3020157948,3020157928,8944899,-0.015357253,0.20335269,0.43592185,3
3020694959,3020638900,8944899,-0.015025693,0.19804263,0.43759996,3
3021120199,3021120174,8944899,0.028879795,0.19834718,0.43828806,3
3021669707,3021669680,8944899,0.015528222,0.18251203,0.44469276,3
3022207862,3022151324,8944899,0.03711865,0.20713072,0.43573007,3
3022632712,3022632692,8944899,0.0042151804,0.19276118,0.44153982,3
3023182348,3023182323,8944899,0.0145472055,0.16783008,0.4511863,3
3023595235,3023595215,8944899,0.002566274,0.1790116,0.44662005,3
3024145635,3024145610,8944899,-0.023674572,0.18554108,0.4424598,3
3024695388,3024695368,8944899,-0.027019756,0.1864399,0.44140708,3
3025108104,3025108079,8944899,-0.03195361,0.17912427,0.44281006,3
3025657929,3025657908,8944899,-0.052925844,0.18849123,0.4366116,3
3026195557,3026139015,8944899,-0.06526635,0.1813831,0.43747577,3
3026620047,3026619990,8944899,-0.032452617,0.17699774,0.4443648,3
3027170301,3027170277,8944899,-0.03871608,0.18388759,0.44081768,3
3027707185,3027651249,8944899,-0.06689036,0.1957327,0.43180814,3
3028132683,3028132663,8944899,-0.040786784,0.19141513,0.43747103,3
3028682696,3028682670,8944899,-0.028452693,0.21353762,0.43055898,3
3029094882,3029094862,8944899,-0.034869462,0.19798958,0.4365542,3
3029644758,3029644733,8944899,-0.05199597,0.17163877,0.44262618,3
3030195280,3030195260,8944899,-0.047073793,0.16391747,0.4460846,3
3030607383,3030607357,8944899,-0.05606018,0.16978696,0.44285756,3
3031157224,3031157203,8944899,-0.015788907,0.16717082,0.44894305,3
3031706983,3031706958,8944899,-0.009455451,0.20089692,0.4367836,3
3032120050,3032120024,8944899,-0.021277435,0.17705691,0.4441238,3
3032670046,3032670021,8944899,-0.024561925,0.16706784,0.44715002,3
3033082647,3033082623,8944899,-0.0133377835,0.17910829,0.44501036,3
3033632161,3033632140,8944899,-0.006854131,0.17893657,0.445038,3
3034182616,3034182591,8944899,-0.000685919,0.20228636,0.43720502,3
3034595415,3034595377,8944899,0.008359409,0.19475855,0.44179145,3
3035145030,3035145004,8944899,-0.0036905548,0.18168703,0.44504106,3
3035694862,3035694842,8944899,0.01464932,0.1717708,0.4487381,3
3036107252,3036107227,8944899,0.052157696,0.15921083,0.4517119,3
3036656972,3036656953,8944899,0.019995293,0.21682948,0.43105647,3
3037194419,3037138802,8944899,0.021870999,0.18329349,0.4447281,3
3037619820,3037619793,8944899,-0.011938405,0.16712403,0.45005026,3
3038170194,3038170133,8944899,0.0012802402,0.18430555,0.44582555,3
3038706922,3038651219,8944899,0.008210809,0.2036283,0.44016552,3
3039132783,3039132763,8944899,0.010285074,0.20349471,0.4400812,3
3039682654,3039682628,8944899,0.0075791986,0.20419085,0.44023222,3
3040095128,3040095108,8944899,0.007821531,0.20491387,0.44003367,3
3040645569,3040645541,8944899,0.008357085,0.20439467,0.43979877,3
3041194360,3041194338,8944899,0.008817741,0.20504886,0.44079158,3
