timestamp,timestamp_sample,q[0],q[1],q[2],q[3],delta_q_reset[0],delta_q_reset[1],delta_q_reset[2],delta_q_reset[3],quat_reset_counter
2770736053,2770735549,-0.9801393,-0.051256556,-0.0033469165,0.19154239,-0.99999946,5.820311e-11,1.7189292e-09,0.0010412207,8
2770741188,2770740812,-0.9801395,-0.051257964,-0.0033454597,0.19154112,-0.99999946,5.820311e-11,1.7189292e-09,0.0010412207,8
2770786023,2770785643,-0.98013985,-0.051254075,-0.00333103,0.19154061,-0.99999946,5.820311e-11,1.7189292e-09,0.0010412207,8
2770830992,2770830641,-0.98013914,-0.051254824,-0.0033217152,0.19154453,-0.99999946,5.820311e-11,1.7189292e-09,0.0010412207,8
2770886021,2770885642,-0.98011065,-0.051343784,-0.0032873328,0.19166665,-0.99999946,5.820311e-11,1.7189292e-09,0.0010412207,8
2770936037,2770935641,-0.9801162,-0.051318325,-0.0033636547,0.19164383,-0.99999946,5.820311e-11,1.7189292e-09,0.0010412207,8
2770989728,2770985855,-0.9801464,-0.051299445,-0.0034787883,0.19149241,-0.99999946,5.820311e-11,1.7189292e-09,0.0010412207,8
2771035989,2771035519,-0.98009616,-0.051179424,-0.0035001098,0.19178075,-0.99999946,5.820311e-11,1.7189292e-09,0.0010412207,8
2771086035,2771085667,-0.9801785,-0.051269736,-0.0034780356,0.1913364,-0.99999946,5.820311e-11,1.7189292e-09,0.0010412207,8
2771139816,2771135814,-0.9800896,-0.051374424,-0.0033932063,0.19176461,-0.99999946,5.820311e-11,1.7189292e-09,0.0010412207,8
2771186032,2771185558,-0.9801672,-0.051358387,-0.0033450313,0.19137225,-0.99999946,5.820311e-11,1.7189292e-09,0.0010412207,8
2771236033,2771235644,-0.9801047,-0.051256537,-0.0033638559,0.19171952,-0.99999946,5.820311e-11,1.7189292e-09,0.0010412207,8
2771280972,2771280642,-0.9801482,-0.05133593,-0.003359936,0.19147603,-0.99999946,5.820311e-11,1.7189292e-09,0.0010412207,8
2771335948,2771335645,-0.9801119,-0.051369373,-0.003266676,0.19165389,-0.99999946,5.820311e-11,1.7189292e-09,0.0010412207,8
2771386011,2771385642,-0.9801422,-0.051392414,-0.0032338456,0.19149351,-0.99999946,5.820311e-11,1.7189292e-09,0.0010412207,8
2771431047,2771430559,-0.9801318,-0.051357012,-0.003224885,0.19155665,-0.99999946,5.820311e-11,1.7189292e-09,0.0010412207,8
2771486007,2771485642,-0.98013306,-0.05141521,-0.0032819095,0.19153318,-0.99999946,5.820311e-11,1.7189292e-09,0.0010412207,8
2771536060,2771535556,-0.98012537,-0.051372405,-0.003231888,0.19158489,-0.99999946,5.820311e-11,1.7189292e-09,0.0010412207,8
2771586126,2771585779,-0.98011386,-0.05144006,-0.003258195,0.19162512,-0.99999946,5.820311e-11,1.7189292e-09,0.0010412207,8
2771641034,2771640663,-0.98012257,-0.051426023,-0.0032607114,0.19158459,-0.99999946,5.820311e-11,1.7189292e-09,0.0010412207,8
2771686033,2771685535,-0.98010576,-0.051451996,-0.0032841319,0.19166297,-0.99999946,5.820311e-11,1.7189292e-09,0.0010412207,8
2771736126,2771735734,-0.980137,-0.051356167,-0.0032588444,0.19152927,-0.99999946,5.820311e-11,1.7189292e-09,0.0010412207,8
2771785978,2771785641,-0.98012793,-0.051208965,-0.003053984,0.1916182,-0.99999946,5.820311e-11,1.7189292e-09,0.0010412207,8
2771836014,2771835642,-0.9801434,-0.051134486,-0.0031916215,0.1915569,-0.99999946,5.820311e-11,1.7189292e-09,0.0010412207,8
2771886110,2771885727,-0.9801346,-0.051136333,-0.0033326321,0.19159892,-0.99999946,5.820311e-11,1.7189292e-09,0.0010412207,8
2771935985,2771935641,-0.98014456,-0.051210973,-0.0034565206,0.19152613,-0.99999946,5.820311e-11,1.7189292e-09,0.0010412207,8
2771986001,2771985641,-0.98013115,-0.051177755,-0.0033917916,0.19160464,-0.99999946,5.820311e-11,1.7189292e-09,0.0010412207,8
2772036080,2772035713,-0.98016423,-0.051078882,-0.0033442345,0.19146262,-0.99999946,5.820311e-11,1.7189292e-09,0.0010412207,8
2772086026,2772085642,-0.9801454,-0.05098507,-0.0032999567,0.1915849,-0.99999946,5.820311e-11,1.7189292e-09,0.0010412207,8
2772135990,2772135641,-0.9801675,-0.050971266,-0.003280783,0.19147576,-0.99999946,5.820311e-11,1.7189292e-09,0.0010412207,8
2772185999,2772185651,-0.9801584,-0.050970443,-0.0031769597,0.19152412,-0.99999946,5.820311e-11,1.7189292e-09,0.0010412207,8
2772236028,2772235569,-0.9801724,-0.05098133,-0.0032130776,0.1914493,-0.99999946,5.820311e-11,1.7189292e-09,0.0010412207,8
2772286019,2772285641,-0.9801639,-0.05095436,-0.0033508944,0.19149756,-0.99999946,5.820311e-11,1.7189292e-09,0.0010412207,8
2772336074,2772335610,-0.98015237,-0.051084075,-0.003416255,0.19152051,-0.99999946,5.820311e-11,1.7189292e-09,0.0010412207,8
2772385985,2772385516,-0.98019797,-0.050703876,-0.003354025,0.19138955,-0.99999946,5.820311e-11,1.7189292e-09,0.0010412207,8
2772436009,2772435641,-0.98021704,-0.05071884,-0.00354557,0.1912845,-0.99999946,5.820311e-11,1.7189292e-09,0.0010412207,8
2772486084,2772485586,-0.9801933,-0.050759077,-0.0036458408,0.19139305,-0.99999946,5.820311e-11,1.7189292e-09,0.0010412207,8
2772536013,2772535642,-0.98020965,-0.05068748,-0.0035806734,0.19133012,-0.99999946,5.820311e-11,1.7189292e-09,0.0010412207,8
2772586000,2772585680,-0.98022676,-0.05055086,-0.0033620934,0.19128223,-0.99999946,5.820311e-11,1.7189292e-09,0.0010412207,8
2772636035,2772635562,-0.98024666,-0.05053134,-0.0031107243,0.19118966,-0.99999946,5.820311e-11,1.7189292e-09,0.0010412207,8
2772685983,2772685641,-0.98022914,-0.05055185,-0.0032636656,0.19127125,-0.99999946,5.820311e-11,1.7189292e-09,0.0010412207,8
2772735972,2772735641,-0.9802573,-0.050464764,-0.0035123024,0.19114585,-0.99999946,5.820311e-11,1.7189292e-09,0.0010412207,8
2772785961,2772785516,-0.98027873,-0.05007274,-0.0035661706,0.19113773,-0.99999946,5.820311e-11,1.7189292e-09,0.0010412207,8
2772835995,2772835642,-0.98027676,-0.050213307,-0.0035206417,0.19111225,-0.99999946,5.820311e-11,1.7189292e-09,0.0010412207,8
2772885961,2772885642,-0.98026526,-0.05029311,-0.0033969618,0.191152,-0.99999946,5.820311e-11,1.7189292e-09,0.0010412207,8
2772936028,2772935557,-0.9802786,-0.05021384,-0.003991598,0.19109322,-0.99999946,5.820311e-11,1.7189292e-09,0.0010412207,8
2772985956,2772985641,-0.9803113,-0.050014548,-0.0038674208,0.19098039,-0.99999946,5.820311e-11,1.7189292e-09,0.0010412207,8
2773035989,2773035641,-0.9803258,-0.0497481,-0.003817491,0.19097628,-0.99999946,5.820311e-11,1.7189292e-09,0.0010412207,8
2773085961,2773085516,-0.98033226,-0.049536277,-0.0035516215,0.1910034,-0.99999946,5.820311e-11,1.7189292e-09,0.0010412207,8
2773135959,2773135641,-0.98033774,-0.049599964,-0.003547774,0.19095857,-0.99999946,5.820311e-11,1.7189292e-09,0.0010412207,8
2773186027,2773185685,-0.980337,-0.049753886,-0.0036606512,0.19092035,-0.99999946,5.820311e-11,1.7189292e-09,0.0010412207,8
2773235982,2773235641,-0.9803627,-0.04947341,-0.0034741242,0.19086486,-0.99999946,5.820311e-11,1.7189292e-09,0.0010412207,8
2773286017,2773285546,-0.9803861,-0.04899018,-0.0035058616,0.19086865,-0.99999946,5.820311e-11,1.7189292e-09,0.0010412207,8
2773330985,2773330516,-0.98039865,-0.04884831,-0.0037572174,0.19083579,-0.99999946,5.820311e-11,1.7189292e-09,0.0010412207,8
2773385913,2773385641,-0.9803994,-0.048851047,-0.0042119473,0.19082138,-0.99999946,5.820311e-11,1.7189292e-09,0.0010412207,8
2773435989,2773435641,-0.98039955,-0.048404943,-0.0046831053,0.19092363,-0.99999946,5.820311e-11,1.7189292e-09,0.0010412207,8
2773480985,2773480517,-0.9804602,-0.048015438,-0.004566174,0.19071288,-0.99999946,5.820311e-11,1.7189292e-09,0.0010412207,8
2773535964,2773535641,-0.98049706,-0.04780608,-0.004763858,0.19057164,-0.99999946,5.820311e-11,1.7189292e-09,0.0010412207,8
2773586002,2773585516,-0.98052365,-0.04744379,-0.004644987,0.19052804,-0.99999946,5.820311e-11,1.7189292e-09,0.0010412207,8
2773631006,2773630515,-0.98059106,-0.04688778,-0.0044913315,0.19032264,-0.99999946,5.820311e-11,1.7189292e-09,0.0010412207,8
2773686001,2773685641,-0.98062044,-0.04643385,-0.004356475,0.19028553,-0.99999946,5.820311e-11,1.7189292e-09,0.0010412207,8
2773735975,2773735641,-0.9806716,-0.045939688,-0.004002382,0.19014952,-0.99999946,5.820311e-11,1.7189292e-09,0.0010412207,8
2773789748,2773785857,-0.9806361,-0.045580734,-0.0039401134,0.19042005,-0.99999946,5.820311e-11,1.7189292e-09,0.0010412207,8
2773836009,2773835641,-0.9806898,-0.044740483,-0.0037969835,0.19034554,-0.99999946,5.820311e-11,1.7189292e-09,0.0010412207,8
2773885986,2773885641,-0.98068255,-0.044418994,-0.004221402,0.19044957,-0.99999946,5.820311e-11,1.7189292e-09,0.0010412207,8
2773936121,2773935686,-0.9807489,-0.043713033,-0.0039854157,0.1902763,-0.99999946,5.820311e-11,1.7189292e-09,0.0010412207,8
2773986072,2773985583,-0.98081946,-0.04285448,-0.004035059,0.19010639,-0.99999946,5.820311e-11,1.7189292e-09,0.0010412207,8
2774036049,2774035642,-0.9808813,-0.040865954,-0.0040774867,0.19022469,-0.99999946,5.820311e-11,1.7189292e-09,0.0010412207,8
2774089721,2774085800,-0.98097366,-0.03890747,-0.0038179958,0.19016416,-0.99999946,5.820311e-11,1.7189292e-09,0.0010412207,8
2774136020,2774135550,-0.98112154,-0.035939023,-0.0033625301,0.1899941,-0.99999946,5.820311e-11,1.7189292e-09,0.0010412207,8
2774186027,2774185642,-0.98120964,-0.032645177,-0.002644211,0.19014463,-0.99999946,5.820311e-11,1.7189292e-09,0.0010412207,8
2774236124,2774235625,-0.9812945,-0.028903956,-0.0023787345,0.19031557,-0.99999946,5.820311e-11,1.7189292e-09,0.0010412207,8
2774285990,2774285516,-0.9813502,-0.023561612,-0.0020096446,0.19076897,-0.99999946,5.820311e-11,1.7189292e-09,0.0010412207,8
2774336054,2774335566,-0.9814147,-0.018352302,-0.0015847129,0.19101323,-0.99999946,5.820311e-11,1.7189292e-09,0.0010412207,8
2774386105,2774385590,-0.9814759,-0.013239104,-0.0007193275,0.19112647,-0.99999946,5.820311e-11,1.7189292e-09,0.0010412207,8
2774435976,2774435641,-0.98156524,-0.0068509234,-0.0005585043,0.19100417,-0.99999946,5.820311e-11,1.7189292e-09,0.0010412207,8
2774486014,2774485642,-0.9815758,0.00090987416,-8.506527e-05,0.191071,-0.99999946,5.820311e-11,1.7189292e-09,0.0010412207,8
2774536094,2774535765,-0.9817238,0.007797106,0.00063237885,0.1901505,-0.99999946,5.820311e-11,1.7189292e-09,0.0010412207,8
2774586034,2774585641,-0.98173755,0.014569686,0.0017537625,0.18967374,-0.99999946,5.820311e-11,1.7189292e-09,0.0010412207,8
2774635992,2774635642,-0.98163784,0.022708299,0.0035249675,0.18936501,-0.99999946,5.820311e-11,1.7189292e-09,0.0010412207,8
2774685996,2774685555,-0.9816179,0.029819632,0.0056217965,0.1884292,-0.99999946,5.820311e-11,1.7189292e-09,0.0010412207,8
2774735939,2774735643,-0.98154557,0.03679417,0.0074872635,0.18750618,-0.99999946,5.820311e-11,1.7189292e-09,0.0010412207,8
2774786015,2774785640,-0.98146623,0.04124848,0.008838683,0.18693472,-0.99999946,5.820311e-11,1.7189292e-09,0.0010412207,8
2774836031,2774835556,-0.9814062,0.044289388,0.009680636,0.18651174,-0.99999946,5.820311e-11,1.7189292e-09,0.0010412207,8
2774885967,2774885641,-0.98131794,0.046688884,0.010843289,0.18632708,-0.99999946,5.820311e-11,1.7189292e-09,0.0010412207,8
2774936008,2774935640,-0.9812353,0.047675624,0.011687969,0.18646106,-0.99999946,5.820311e-11,1.7189292e-09,0.0010412207,8
2774986033,2774985641,-0.9811908,0.046329405,0.011452517,0.1870483,-0.99999946,5.820311e-11,1.7189292e-09,0.0010412207,8
2775035979,2775035562,-0.9811044,0.043414194,0.011951157,0.18816653,-0.99999946,5.820311e-11,1.7189292e-09,0.0010412207,8
2775085991,2775085654,-0.98116124,0.0362053,0.010382051,0.18948387,-0.99999946,5.820311e-11,1.7189292e-09,0.0010412207,8
2775135997,2775135640,-0.98128873,0.02693452,0.006849965,0.19052593,-0.99999946,5.820311e-11,1.7189292e-09,0.0010412207,8
2775185966,2775185641,-0.98126423,0.021821458,0.0031921547,0.19140074,-0.99999946,5.820311e-11,1.7189292e-09,0.0010412207,8
2775235995,2775235641,-0.98116165,0.015009234,0.001360507,0.19259983,-0.99999946,5.820311e-11,1.7189292e-09,0.0010412207,8
2775285984,2775285640,-0.98094803,0.0062256693,-0.0011325947,0.19416723,-0.99999946,5.820311e-11,1.7189292e-09,0.0010412207,8
2775336011,2775335516,-0.9805712,0.00087602,-0.004681315,0.1961059,-0.99999946,5.820311e-11,1.7189292e-09,0.0010412207,8
2775386021,2775385683,-0.9800712,-0.002764992,-0.008371868,0.19845085,-0.99999946,5.820311e-11,1.7189292e-09,0.0010412207,8
2775435921,2775435664,-0.97953224,-0.0062064356,-0.010080321,0.20093925,-0.99999946,5.820311e-11,1.7189292e-09,0.0010412207,8
2775485974,2775485641,-0.9791268,-0.007481287,-0.009454773,0.20289257,-0.99999946,5.820311e-11,1.7189292e-09,0.0010412207,8
2775535992,2775535641,-0.9787012,-0.0083015105,-0.0075085885,0.20498475,-0.99999946,5.820311e-11,1.7189292e-09,0.0010412207,8
2775585985,2775585641,-0.97840184,-0.008589062,-0.005497222,0.20646039,-0.99999946,5.820311e-11,1.7189292e-09,0.0010412207,8
2775635991,2775635642,-0.9780913,-0.009281156,-0.0025401074,0.20795435,-0.99999946,5.820311e-11,1.7189292e-09,0.0010412207,8
2775689843,2775685934,-0.97780144,-0.011478159,0.0007546429,0.20921768,-0.99999946,5.820311e-11,1.7189292e-09,0.0010412207,8
2775736053,2775735556,-0.97753495,-0.013413806,0.0022203326,0.2103345,-0.99999946,5.820311e-11,1.7189292e-09,0.0010412207,8
2775785987,2775785641,-0.9772974,-0.012801897,0.0013395487,0.21148062,-0.99999946,5.820311e-11,1.7189292e-09,0.0010412207,8
2775830978,2775830640,-0.9771645,-0.009698765,-0.0010463283,0.21226041,-0.99999946,5.820311e-11,1.7189292e-09,0.0010412207,8
2775886038,2775885516,-0.97702694,-0.004272137,-0.003447986,0.21304552,-0.99999946,5.820311e-11,1.7189292e-09,0.0010412207,8
2775935983,2775935641,-0.9769938,-0.0006371078,-0.004453472,0.21322058,-0.99999946,5.820311e-11,1.7189292e-09,0.0010412207,8
2775981128,2775980555,-0.9769579,0.0018362544,-0.004513859,0.21337663,-0.99999946,5.820311e-11,1.7189292e-09,0.0010412207,8
2776035988,2776035516,-0.97700965,0.0026337823,-0.0045565697,0.21313027,-0.99999946,5.820311e-11,1.7189292e-09,0.0010412207,8
2776086084,2776085682,-0.97708833,0.002198759,-0.0045456337,0.21277422,-0.99999946,5.820311e-11,1.7189292e-09,0.0010412207,8
2776136008,2776135640,-0.9772135,0.0008503139,-0.004518828,0.21220925,-0.99999946,5.820311e-11,1.7189292e-09,0.0010412207,8
2776185982,2776185641,-0.9772864,7.453859e-05,-0.004853799,0.21186726,-0.99999946,5.820311e-11,1.7189292e-09,0.0010412207,8
2776236063,2776235640,-0.9774341,-0.00030381282,-0.0050378614,0.21118054,-0.99999946,5.820311e-11,1.7189292e-09,0.0010412207,8
2776280991,2776280641,-0.9775973,-0.0021100014,-0.004787691,0.21041918,-0.99999946,5.820311e-11,1.7189292e-09,0.0010412207,8
2776335980,2776335642,-0.9778038,-0.003748559,-0.0041208826,0.209449,-0.99999946,5.820311e-11,1.7189292e-09,0.0010412207,8
2776385964,2776385641,-0.9780132,-0.0035698279,-0.0036679222,0.20848013,-0.99999946,5.820311e-11,1.7189292e-09,0.0010412207,8
2776430980,2776430516,-0.9782542,-0.002076864,-0.003683091,0.20736688,-0.99999946,5.820311e-11,1.7189292e-09,0.0010412207,8
2776486008,2776485641,-0.97853506,-0.00021257327,-0.004629476,0.20602804,-0.99999946,5.820311e-11,1.7189292e-09,0.0010412207,8
2776535999,2776535641,-0.97874063,0.0015962442,-0.0051803007,0.20503077,-0.99999946,5.820311e-11,1.7189292e-09,0.0010412207,8
2776586132,2776585787,-0.97896683,0.002514921,-0.005285159,0.20393586,-0.99999946,5.820311e-11,1.7189292e-09,0.0010412207,8
2776635993,2776635641,-0.9792253,0.0029463826,-0.0062006908,0.20265952,-0.99999946,5.820311e-11,1.7189292e-09,0.0010412207,8
2776686018,2776685518,-0.9794321,0.0047584088,-0.0073506865,0.2015842,-0.99999946,5.820311e-11,1.7189292e-09,0.0010412207,8
2776739785,2776735760,-0.9796535,0.005133759,-0.008830468,0.20043671,-0.99999946,5.820311e-11,1.7189292e-09,0.0010412207,8
2776786009,2776785556,-0.979814,0.0057767592,-0.010170093,0.1995692,-0.99999946,5.820311e-11,1.7189292e-09,0.0010412207,8
2776836004,2776835641,-0.9800149,0.0062348247,-0.011084384,0.19851765,-0.99999946,5.820311e-11,1.7189292e-09,0.0010412207,8
2776886128,2776885641,-0.9802068,0.006047221,-0.012189055,0.19750841,-0.99999946,5.820311e-11,1.7189292e-09,0.0010412207,8
2776935973,2776935641,-0.9803839,0.0072104526,-0.012661008,0.19655861,-0.99999946,5.820311e-11,1.7189292e-09,0.0010412207,8
2776985990,2776985641,0.98045266,-0.0075464635,0.013413642,-0.19615248,-0.99999994,9.624493e-10,-2.4276843e-09,0.00051422976,9
2777036078,2777035608,0.98055613,-0.007960422,0.013516147,-0.19561131,-0.99999994,9.624493e-10,-2.4276843e-09,0.00051422976,9
2777085968,2777085515,0.98069555,-0.008217736,0.013328096,-0.19491315,-0.99999994,9.624493e-10,-2.4276843e-09,0.00051422976,9
2777136048,2777135682,0.98081833,-0.007923609,0.01298258,-0.19433016,-0.99999994,9.624493e-10,-2.4276843e-09,0.00051422976,9
2777186100,2777185581,0.98095536,-0.0067841406,0.01277752,-0.1936938,-0.99999994,9.624493e-10,-2.4276843e-09,0.00051422976,9
2777236005,2777235516,0.98109967,-0.005617114,0.012462587,-0.19302009,-0.99999994,9.624493e-10,-2.4276843e-09,0.00051422976,9
2777285982,2777285641,0.98119843,-0.005851228,0.012184821,-0.19252786,-0.99999994,9.624493e-10,-2.4276843e-09,0.00051422976,9
2777335955,2777335568,0.9813334,-0.0056893197,0.012404357,-0.19182968,-0.99999994,9.624493e-10,-2.4276843e-09,0.00051422976,9
2777385995,2777385662,0.98144907,-0.0064611644,0.012909426,-0.19117916,-0.99999994,9.624493e-10,-2.4276843e-09,0.00051422976,9
2777436008,2777435641,0.9815898,-0.0063395635,0.013787505,-0.19039753,-0.99999994,9.624493e-10,-2.4276843e-09,0.00051422976,9
2777480983,2777480641,0.9817079,-0.006898558,0.013990302,-0.18975344,-0.99999994,9.624493e-10,-2.4276843e-09,0.00051422976,9
2777535960,2777535641,0.9818804,-0.007601251,0.014243195,-0.18881287,-0.99999994,9.624493e-10,-2.4276843e-09,0.00051422976,9
2777586005,2777585641,0.9820588,-0.008571091,0.014067423,-0.18785411,-0.99999994,9.624493e-10,-2.4276843e-09,0.00051422976,9
2777636010,2777635542,0.9822398,-0.007877119,0.01415293,-0.18692993,-0.99999994,9.624493e-10,-2.4276843e-09,0.00051422976,9
2777685983,2777685641,0.9824436,-0.0087699285,0.013201143,-0.18588555,-0.99999994,9.624493e-10,-2.4276843e-09,0.00051422976,9
2777736016,2777735641,0.9826559,-0.009665763,0.011507578,-0.18482901,-0.99999994,9.624493e-10,-2.4276843e-09,0.00051422976,9
2777785989,2777785516,0.9828757,-0.009385752,0.011436968,-0.1836751,-0.99999994,9.624493e-10,-2.4276843e-09,0.00051422976,9
2777836060,2777835682,0.98304963,-0.008050128,0.012409494,-0.18274197,-0.99999994,9.624493e-10,-2.4276843e-09,0.00051422976,9
2777885922,2777885516,0.98322666,-0.008158799,0.012467282,-0.18177854,-0.99999994,9.624493e-10,-2.4276843e-09,0.00051422976,9
2777935995,2777935641,0.98337567,-0.009106272,0.011957794,-0.18095954,-0.99999994,9.624493e-10,-2.4276843e-09,0.00051422976,9
2777986016,2777985641,0.98350304,-0.009360277,0.01180961,-0.18026324,-0.99999994,9.624493e-10,-2.4276843e-09,0.00051422976,9
2778035968,2778035641,0.9836562,-0.007879633,0.011842676,-0.17949454,-0.99999994,9.624493e-10,-2.4276843e-09,0.00051422976,9
2778086005,2778085661,0.98375857,-0.0074997684,0.011899988,-0.17894481,-0.99999994,9.624493e-10,-2.4276843e-09,0.00051422976,9
2778135982,2778135641,0.9839323,-0.007458884,0.011787653,-0.17799626,-0.99999994,9.624493e-10,-2.4276843e-09,0.00051422976,9
2778186079,2778185680,0.98401004,-0.00840695,0.01189183,-0.17751698,-0.99999994,9.624493e-10,-2.4276843e-09,0.00051422976,9
2778235956,2778235641,0.9841164,-0.009113977,0.012229113,-0.1768688,-0.99999994,9.624493e-10,-2.4276843e-09,0.00051422976,9
2778291002,2778290529,0.98423946,-0.012088187,0.011837794,-0.17602956,-0.99999994,9.624493e-10,-2.4276843e-09,0.00051422976,9
2778339815,2778335828,0.9842547,-0.012947995,0.012560713,-0.17583296,-0.99999994,9.624493e-10,-2.4276843e-09,0.00051422976,9
2778386013,2778385641,0.984316,-0.011317269,0.013735799,-0.17551462,-0.99999994,9.624493e-10,-2.4276843e-09,0.00051422976,9
2778435982,2778435516,0.98436517,-0.008658293,0.014974092,-0.17528822,-0.99999994,9.624493e-10,-2.4276843e-09,0.00051422976,9
2778489720,2778485784,0.9844206,-0.0069002407,0.014553167,-0.17509054,-0.99999994,9.624493e-10,-2.4276843e-09,0.00051422976,9
2778536033,2778535557,0.98452765,-0.008177476,0.012779036,-0.17457145,-0.99999994,9.624493e-10,-2.4276843e-09,0.00051422976,9
2778586011,2778585640,0.98456925,-0.009266143,0.011550259,-0.17436814,-0.99999994,9.624493e-10,-2.4276843e-09,0.00051422976,9
2778635988,2778635640,0.98468107,-0.009180188,0.010917958,-0.17378077,-0.99999994,9.624493e-10,-2.4276843e-09,0.00051422976,9
2778686005,2778685641,0.9847111,-0.009388377,0.010450348,-0.17362805,-0.99999994,9.624493e-10,-2.4276843e-09,0.00051422976,9
2778735993,2778735641,0.9847559,-0.010602132,0.010366462,-0.17330946,-0.99999994,9.624493e-10,-2.4276843e-09,0.00051422976,9
2778781001,2778780660,0.9847845,-0.010890243,0.010563028,-0.17311662,-0.99999994,9.624493e-10,-2.4276843e-09,0.00051422976,9
2778835979,2778835535,0.98483294,-0.0111201545,0.010786169,-0.17281216,-0.99999994,9.624493e-10,-2.4276843e-09,0.00051422976,9
2778886060,2778885681,0.9848373,-0.0098927915,0.011379356,-0.17282408,-0.99999994,9.624493e-10,-2.4276843e-09,0.00051422976,9
2778936010,2778935640,0.9848581,-0.009342144,0.012374359,-0.17266802,-0.99999994,9.624493e-10,-2.4276843e-09,0.00051422976,9
2778985981,2778985516,0.9847987,-0.010539039,0.012938954,-0.1728962,-0.99999994,9.624493e-10,-2.4276843e-09,0.00051422976,9
2779035996,2779035642,0.9847819,-0.011951517,0.01260022,-0.17292511,-0.99999994,9.624493e-10,-2.4276843e-09,0.00051422976,9
2779080967,2779080642,0.98470825,-0.014017922,0.012384731,-0.17320496,-0.99999994,9.624493e-10,-2.4276843e-09,0.00051422976,9
2779136000,2779135516,0.984708,-0.013564526,0.012081858,-0.17326355,-0.99999994,9.624493e-10,-2.4276843e-09,0.00051422976,9
2779186000,2779185642,0.9846754,-0.013170096,0.011725453,-0.1735032,-0.99999994,9.624493e-10,-2.4276843e-09,0.00051422976,9
2779230985,2779230642,0.9846779,-0.014235788,0.011257792,-0.17343625,-0.99999994,9.624493e-10,-2.4276843e-09,0.00051422976,9
2779286008,2779285641,0.9846,-0.014444495,0.0114230225,-0.17385033,-0.99999994,9.624493e-10,-2.4276843e-09,0.00051422976,9
2779336059,2779335641,0.984496,-0.014859893,0.011775142,-0.17437994,-0.99999994,9.624493e-10,-2.4276843e-09,0.00051422976,9
2779386126,2779385784,0.98438436,-0.014011334,0.01237853,-0.17503698,-0.99999994,9.624493e-10,-2.4276843e-09,0.00051422976,9
2779435965,2779435642,0.9843185,-0.012893668,0.012928626,-0.17545305,-0.99999994,9.624493e-10,-2.4276843e-09,0.00051422976,9
2779486023,2779485640,0.9842641,-0.011922482,0.012317228,-0.17587036,-0.99999994,9.624493e-10,-2.4276843e-09,0.00051422976,9
2779536168,2779535743,0.9841447,-0.013472494,0.0112175895,-0.17649901,-0.99999994,9.624493e-10,-2.4276843e-09,0.00051422976,9
2779586049,2779585559,0.98399866,-0.014019066,0.010873937,-0.17729013,-0.99999994,9.624493e-10,-2.4276843e-09,0.00051422976,9
2779636002,2779635641,0.9838306,-0.013374178,0.011190647,-0.17825077,-0.99999994,9.624493e-10,-2.4276843e-09,0.00051422976,9
2779686024,2779685600,0.9837284,-0.012404931,0.011274128,-0.17887855,-0.99999994,9.624493e-10,-2.4276843e-09,0.00051422976,9
2779735973,2779735641,0.9835736,-0.013046771,0.011479251,-0.17966893,-0.99999994,9.624493e-10,-2.4276843e-09,0.00051422976,9
2779786010,2779785643,0.98340076,-0.01407782,0.011763595,-0.1805167,-0.99999994,9.624493e-10,-2.4276843e-09,0.00051422976,9
2779836000,2779835682,0.98323995,-0.013531778,0.011686366,-0.18143742,-0.99999994,9.624493e-10,-2.4276843e-09,0.00051422976,9
2779885995,2779885640,0.9830897,-0.012882531,0.011331723,-0.18231931,-0.99999994,9.624493e-10,-2.4276843e-09,0.00051422976,9
2779936054,2779935559,0.983007,-0.012216598,0.011288496,-0.18281299,-0.99999994,9.624493e-10,-2.4276843e-09,0.00051422976,9
2779986120,2779985659,0.9829138,-0.012345124,0.010789749,-0.18333483,-0.99999994,9.624493e-10,-2.4276843e-09,0.00051422976,9
2780035976,2780035641,0.9827992,-0.013020256,0.010257718,-0.18393247,-0.99999994,9.624493e-10,-2.4276843e-09,0.00051422976,9
2780086065,2780085686,0.9827523,-0.012365566,0.010370461,-0.1842214,-0.99999994,9.624493e-10,-2.4276843e-09,0.00051422976,9
2780135966,2780135645,0.9826915,-0.010963655,0.010640744,-0.18461867,-0.99999994,9.624493e-10,-2.4276843e-09,0.00051422976,9
2780185969,2780185515,0.9826872,-0.008906366,0.01092988,-0.18473555,-0.99999994,9.624493e-10,-2.4276843e-09,0.00051422976,9
2780236008,2780235642,0.982663,-0.008531945,0.012740248,-0.18476574,-0.99999994,9.624493e-10,-2.4276843e-09,0.00051422976,9
2780286013,2780285581,0.9826156,-0.008783425,0.014183395,-0.18490061,-0.99999994,9.624493e-10,-2.4276843e-09,0.00051422976,9
2780335961,2780335642,0.9826393,-0.008517317,0.014802155,-0.1847384,-0.99999994,9.624493e-10,-2.4276843e-09,0.00051422976,9
2780385984,2780385641,0.9826897,-0.007494743,0.015009208,-0.18449809,-0.99999994,9.624493e-10,-2.4276843e-09,0.00051422976,9
2780435955,2780435641,0.9827213,-0.006075706,0.015435598,-0.18434684,-0.99999994,9.624493e-10,-2.4276843e-09,0.00051422976,9
2780486027,2780485641,0.9828283,-0.0041719885,0.015585169,-0.18381596,-0.99999994,9.624493e-10,-2.4276843e-09,0.00051422976,9
2780535923,2780535641,0.98294485,-0.0014991635,0.015488067,-0.1832411,-0.99999994,9.624493e-10,-2.4276843e-09,0.00051422976,9
2780585961,2780585517,0.9830905,0.0007943612,0.015206511,-0.18248612,-0.99999994,9.624493e-10,-2.4276843e-09,0.00051422976,9
2780635999,2780635680,0.98333013,0.0019209845,0.014432863,-0.18124568,-0.99999994,9.624493e-10,-2.4276843e-09,0.00051422976,9
2780685997,2780685641,0.9835196,0.0022253087,0.013987445,-0.18024623,-0.99999994,9.624493e-10,-2.4276843e-09,0.00051422976,9
2780735975,2780735515,0.9837299,0.0027321065,0.013799496,-0.17910263,-0.99999994,9.624493e-10,-2.4276843e-09,0.00051422976,9
2780785985,2780785641,0.98392934,0.0042882543,0.013551758,-0.17799151,-0.99999994,9.624493e-10,-2.4276843e-09,0.00051422976,9
2780836024,2780835644,0.98409307,0.0040260116,0.0133759845,-0.17710413,-0.99999994,9.624493e-10,-2.4276843e-09,0.00051422976,9
2780886004,2780885641,0.9842578,0.0028518408,0.012111455,-0.17630036,-0.99999994,9.624493e-10,-2.4276843e-09,0.00051422976,9
2780935990,2780935641,0.984416,0.00014520691,0.009942293,-0.17557435,-0.99999994,9.624493e-10,-2.4276843e-09,0.00051422976,9
2780981026,2780980641,0.9844505,-0.0017222035,0.008753048,-0.17543556,-0.99999994,9.624493e-10,-2.4276843e-09,0.00051422976,9
2781036001,2781035641,0.98450416,-0.0031527248,0.007862373,-0.17515703,-0.99999994,9.624493e-10,-2.4276843e-09,0.00051422976,9
2781086045,2781085641,0.9844382,-0.002052823,0.008551369,-0.17551138,-0.99999994,9.624493e-10,-2.4276843e-09,0.00051422976,9
2781139765,2781135797,0.9843685,-0.0004515495,0.009844244,-0.17584513,-0.99999994,9.624493e-10,-2.4276843e-09,0.00051422976,9
2781186006,2781185641,0.9842679,0.00079300324,0.010912801,-0.1763434,-0.99999994,9.624493e-10,-2.4276843e-09,0.00051422976,9
2781236006,2781235641,0.98412496,0.0010378786,0.011312682,-0.17711344,-0.99999994,9.624493e-10,-2.4276843e-09,0.00051422976,9
2781286072,2781285640,0.9840695,0.0010752867,0.0106720505,-0.17746039,-0.99999994,9.624493e-10,-2.4276843e-09,0.00051422976,9
2781336031,2781335681,0.9840908,0.00046250637,0.010246681,-0.17736977,-0.99999994,9.624493e-10,-2.4276843e-09,0.00051422976,9
2781386012,2781385641,0.9840465,-0.0017444041,0.01067941,-0.17758204,-0.99999994,9.624493e-10,-2.4276843e-09,0.00051422976,9
2781436045,2781435640,0.9840139,-0.004288313,0.0108518,-0.17770934,-0.99999994,9.624493e-10,-2.4276843e-09,0.00051422976,9
2781486003,2781485641,0.98402816,-0.005617793,0.01044937,-0.1776176,-0.99999994,9.624493e-10,-2.4276843e-09,0.00051422976,9
2781536043,2781535642,0.98393035,-0.007340427,0.0096520465,-0.17814049,-0.99999994,9.624493e-10,-2.4276843e-09,0.00051422976,9
2781586169,2781585703,0.98387235,-0.008125638,0.0090061175,-0.17846052,-0.99999994,9.624493e-10,-2.4276843e-09,0.00051422976,9
2781636014,2781635640,0.98384035,-0.008728926,0.009515101,-0.17858234,-0.99999994,9.624493e-10,-2.4276843e-09,0.00051422976,9
2781686145,2781685681,0.9837862,-0.010353084,0.0101558855,-0.17875823,-0.99999994,9.624493e-10,-2.4276843e-09,0.00051422976,9
2781736230,2781735827,0.9837732,-0.011092543,0.010223071,-0.17878169,-0.99999994,9.624493e-10,-2.4276843e-09,0.00051422976,9
2781786052,2781785641,0.9837339,-0.0099431835,0.010841096,-0.17902882,-0.99999994,9.624493e-10,-2.4276843e-09,0.00051422976,9
2781836038,2781835642,0.98373353,-0.008591819,0.012130885,-0.17901786,-0.99999994,9.624493e-10,-2.4276843e-09,0.00051422976,9
2781886120,2781885657,0.98377573,-0.007297222,0.0123867495,-0.17882574,-0.99999994,9.624493e-10,-2.4276843e-09,0.00051422976,9
2781935982,2781935516,0.98378694,-0.008784703,0.011731495,-0.17874125,-0.99999994,9.624493e-10,-2.4276843e-09,0.00051422976,9
2781986085,2781985641,0.98382443,-0.011803472,0.010661502,-0.1784279,-0.99999994,9.624493e-10,-2.4276843e-09,0.00051422976,9
2782031002,2782030641,0.9837962,-0.013833789,0.010418757,-0.17845249,-0.99999994,9.624493e-10,-2.4276843e-09,0.00051422976,9
2782086007,2782085519,0.9837614,-0.015327509,0.0101942355,-0.17853448,-0.99999994,9.624493e-10,-2.4276843e-09,0.00051422976,9
2782136000,2782135641,0.98367923,-0.014670988,0.010977656,-0.17899597,-0.99999994,9.624493e-10,-2.4276843e-09,0.00051422976,9
2782186120,2782185612,0.98357815,-0.014554496,0.012819596,-0.17943776,-0.99999994,9.624493e-10,-2.4276843e-09,0.00051422976,9
2782236017,2782235641,0.98347247,-0.015082777,0.0137581965,-0.17990346,-0.99999994,9.624493e-10,-2.4276843e-09,0.00051422976,9
2782286026,2782285641,0.98340476,-0.014387975,0.0139470585,-0.1803152,-0.99999994,9.624493e-10,-2.4276843e-09,0.00051422976,9
2782336066,2782335595,0.9832581,-0.014678157,0.014315645,-0.18106107,-0.99999994,9.624493e-10,-2.4276843e-09,0.00051422976,9
2782386092,2782385682,0.9831012,-0.015555233,0.015707508,-0.18172362,-0.99999994,9.624493e-10,-2.4276843e-09,0.00051422976,9
2782436016,2782435642,0.9830114,-0.015059133,0.018097341,-0.18202804,-0.99999994,9.624493e-10,-2.4276843e-09,0.00051422976,9
2782486126,2782485751,0.98293644,-0.014343437,0.02041935,-0.18224508,-0.99999994,9.624493e-10,-2.4276843e-09,0.00051422976,9
2782535979,2782535641,0.9828933,-0.014545465,0.0218666,-0.18229438,-0.99999994,9.624493e-10,-2.4276843e-09,0.00051422976,9
2782586054,2782585641,0.98285264,-0.013132107,0.023239566,-0.18245097,-0.99999994,9.624493e-10,-2.4276843e-09,0.00051422976,9
2782636028,2782635558,0.9828312,-0.011244534,0.024596753,-0.18251432,-0.99999994,9.624493e-10,-2.4276843e-09,0.00051422976,9
2782686007,2782685641,0.9828469,-0.0102727795,0.024903629,-0.18244514,-0.99999994,9.624493e-10,-2.4276843e-09,0.00051422976,9
2782736029,2782735535,0.9829099,-0.010282401,0.02451166,-0.18215826,-0.99999994,9.624493e-10,-2.4276843e-09,0.00051422976,9
2782786034,2782785666,0.98296493,-0.008131188,0.024993218,-0.18190464,-0.99999994,9.624493e-10,-2.4276843e-09,0.00051422976,9
2782841014,2782840556,0.9830597,-0.008536418,0.025046393,-0.18136528,-0.99999994,9.624493e-10,-2.4276843e-09,0.00051422976,9
2782886017,2782885641,0.98315996,-0.010710516,0.0230855,-0.18096636,-0.99999994,9.624493e-10,-2.4276843e-09,0.00051422976,9
2782936005,2782935640,0.9833112,-0.012373704,0.020219633,-0.1803811,-0.99999994,9.624493e-10,-2.4276843e-09,0.00051422976,9
2782986014,2782985641,0.9835627,-0.01270565,0.018390458,-0.17917852,-0.99999994,9.624493e-10,-2.4276843e-09,0.00051422976,9
2783035971,2783035641,0.9836286,-0.016078018,0.018041365,-0.17858033,-0.99999994,9.624493e-10,-2.4276843e-09,0.00051422976,9
2783086014,2783085680,0.9836596,-0.018285843,0.02068447,-0.17790896,-0.99999994,9.624493e-10,-2.4276843e-09,0.00051422976,9
2783136028,2783135641,0.983485,-0.019815298,0.024222929,-0.17826356,-0.99999994,9.624493e-10,-2.4276843e-09,0.00051422976,9
2783186021,2783185642,0.9831895,-0.022153456,0.02706729,-0.17920658,-0.99999994,9.624493e-10,-2.4276843e-09,0.00051422976,9
2783235960,2783235641,0.9828836,-0.020783748,0.029992312,-0.18057775,-0.99999994,9.624493e-10,-2.4276843e-09,0.00051422976,9
2783286001,2783285516,0.9825471,-0.020131433,0.032068416,-0.18211953,-0.99999994,9.624493e-10,-2.4276843e-09,0.00051422976,9
2783335995,2783335641,0.98227787,-0.020932177,0.031067934,-0.18364899,-0.99999994,9.624493e-10,-2.4276843e-09,0.00051422976,9
2783386018,2783385641,0.9821781,-0.018247398,0.027409637,-0.18504584,-0.99999994,9.624493e-10,-2.4276843e-09,0.00051422976,9
2783436011,2783435682,0.9820306,-0.013625013,0.02315074,-0.18680057,-0.99999994,9.624493e-10,-2.4276843e-09,0.00051422976,9
2783486010,2783485642,0.98188007,-0.010059719,0.019979732,-0.18817852,-0.99999994,9.624493e-10,-2.4276843e-09,0.00051422976,9
2783535977,2783535641,0.9817275,-0.0071343523,0.016677773,-0.18942568,-0.99999994,9.624493e-10,-2.4276843e-09,0.00051422976,9
2783585980,2783585640,0.98150975,-0.004617309,0.0144382585,-0.1908113,-0.99999994,9.624493e-10,-2.4276843e-09,0.00051422976,9
2783630963,2783630641,0.9813531,-0.0029950582,0.013893003,-0.19168793,-0.99999994,9.624493e-10,-2.4276843e-09,0.00051422976,9
2783686001,2783685516,0.98118925,-0.004423093,0.013091786,-0.19255309,-0.99999994,9.624493e-10,-2.4276843e-09,0.00051422976,9
2783735995,2783735641,0.98101944,-0.005567757,0.0121099,-0.19345114,-0.99999994,9.624493e-10,-2.4276843e-09,0.00051422976,9
2783781012,2783780641,0.98093235,-0.008314402,0.012602612,-0.19376226,-0.99999994,9.624493e-10,-2.4276843e-09,0.00051422976,9
2783835979,2783835516,0.9808808,-0.015565195,0.0129262665,-0.19355531,-0.99999994,9.624493e-10,-2.4276843e-09,0.00051422976,9
2783886004,2783885641,0.98091274,-0.021146627,0.013298136,-0.19283736,-0.99999994,9.624493e-10,-2.4276843e-09,0.00051422976,9
2783936019,2783935641,0.9811184,-0.02361504,0.013318139,-0.19149895,-0.99999994,9.624493e-10,-2.4276843e-09,0.00051422976,9
2783985976,2783985641,0.98139817,-0.025124785,0.012151907,-0.18994439,-0.99999994,9.624493e-10,-2.4276843e-09,0.00051422976,9
2784035988,2784035644,0.98171484,-0.025991952,0.009585905,-0.18833101,-0.99999994,9.624493e-10,-2.4276843e-09,0.00051422976,9
2784086038,2784085650,0.9821262,-0.024338812,0.006546111,-0.18652906,-0.99999994,9.624493e-10,-2.4276843e-09,0.00051422976,9
2784136051,2784135683,0.9825298,-0.022000683,0.003104546,-0.18477407,-0.99999994,9.624493e-10,-2.4276843e-09,0.00051422976,9
2784185976,2784185642,0.9829202,-0.018775128,0.000108162385,-0.18307187,-0.99999994,9.624493e-10,-2.4276843e-09,0.00051422976,9
2784239769,2784235843,0.98321706,-0.017395508,-0.002342923,-0.1815936,-0.99999994,9.624493e-10,-2.4276843e-09,0.00051422976,9
2784286031,2784285671,0.9834246,-0.0183771,-0.002972599,-0.18035966,-0.99999994,9.624493e-10,-2.4276843e-09,0.00051422976,9
2784336038,2784335642,0.9836705,-0.018866539,-0.0021245752,-0.17897514,-0.99999994,9.624493e-10,-2.4276843e-09,0.00051422976,9
2784386157,2784385818,0.98382473,-0.020158608,-0.0008251438,-0.17799431,-0.99999994,9.624493e-10,-2.4276843e-09,0.00051422976,9
2784435979,2784435641,0.9839214,-0.020934045,0.001689955,-0.17736304,-0.99999994,9.624493e-10,-2.4276843e-09,0.00051422976,9
2784486091,2784485582,0.98391014,-0.022477299,0.0057706563,-0.17715056,-0.99999994,9.624493e-10,-2.4276843e-09,0.00051422976,9
2784536142,2784535652,0.98390555,-0.021046005,0.009722397,-0.17717932,-0.99999994,9.624493e-10,-2.4276843e-09,0.00051422976,9
2784585981,2784585641,0.98384494,-0.020099977,0.011159413,-0.1775408,-0.99999994,9.624493e-10,-2.4276843e-09,0.00051422976,9
2784636030,2784635641,0.9837793,-0.02113857,0.010854592,-0.17780223,-0.99999994,9.624493e-10,-2.4276843e-09,0.00051422976,9
2784686137,2784685676,0.98358333,-0.022622028,0.01016968,-0.17874199,-0.99999994,9.624493e-10,-2.4276843e-09,0.00051422976,9
2784735985,2784735642,0.98345286,-0.023077192,0.008673687,-0.17947888,-0.99999994,9.624493e-10,-2.4276843e-09,0.00051422976,9
2784786011,2784785656,0.98333013,-0.024587993,0.007308015,-0.1800111,-0.99999994,9.624493e-10,-2.4276843e-09,0.00051422976,9
2784836138,2784835678,0.98331386,-0.023016619,0.008354098,-0.18026236,-0.99999994,9.624493e-10,-2.4276843e-09,0.00051422976,9
2784885986,2784885641,0.9831896,-0.021829348,0.010963923,-0.18094635,-0.99999994,9.624493e-10,-2.4276843e-09,0.00051422976,9
2784935979,2784935641,0.9830359,-0.021059835,0.012369645,-0.18177992,-0.99999994,9.624493e-10,-2.4276843e-09,0.00051422976,9
2784986041,2784985582,0.982917,-0.019076299,0.013339837,-0.1825718,-0.99999994,9.624493e-10,-2.4276843e-09,0.00051422976,9
2785036029,2785035545,0.98281825,-0.014584975,0.014375811,-0.18343647,-0.99999994,9.624493e-10,-2.4276843e-09,0.00051422976,9
2785086026,2785085642,0.9826751,-0.011291782,0.014352724,-0.18443464,-0.99999994,9.624493e-10,-2.4276843e-09,0.00051422976,9
2785136022,2785135572,0.9826058,-0.011436121,0.013101933,-0.1848877,-0.99999994,9.624493e-10,-2.4276843e-09,0.00051422976,9
2785186009,2785185683,0.9824936,-0.0145554375,0.0104286345,-0.1854343,-0.99999994,9.624493e-10,-2.4276843e-09,0.00051422976,9
2785236062,2785235685,0.98251593,-0.012557512,0.007738129,-0.1855936,-0.99999994,9.624493e-10,-2.4276843e-09,0.00051422976,9
2785285977,2785285527,0.98249954,-0.0112411585,0.006339075,-0.18581758,-0.99999994,9.624493e-10,-2.4276843e-09,0.00051422976,9
2785335969,2785335641,0.9824518,-0.00967623,0.0063785757,-0.18615665,-0.99999994,9.624493e-10,-2.4276843e-09,0.00051422976,9
2785385981,2785385641,0.98241895,-0.009928095,0.006321657,-0.18631835,-0.99999994,9.624493e-10,-2.4276843e-09,0.00051422976,9
2785435923,2785435536,0.98236585,-0.010308389,0.006302398,-0.18657841,-0.99999994,9.624493e-10,-2.4276843e-09,0.00051422976,9
2785485953,2785485640,0.9822703,-0.01132561,0.0056446097,-0.1870425,-0.99999994,9.624493e-10,-2.4276843e-09,0.00051422976,9
2785536026,2785535558,0.9822722,-0.012376159,0.0047336356,-0.18699163,-0.99999994,9.624493e-10,-2.4276843e-09,0.00051422976,9
2785586009,2785585545,0.98214513,-0.01447722,0.004015912,-0.1875243,-0.99999994,9.624493e-10,-2.4276843e-09,0.00051422976,9
2785635986,2785635641,0.9821166,-0.0139799025,0.0039055694,-0.18771365,-0.99999994,9.624493e-10,-2.4276843e-09,0.00051422976,9
2785686000,2785685641,0.982057,-0.014637435,0.0042351,-0.18796776,-0.99999994,9.624493e-10,-2.4276843e-09,0.00051422976,9
2785736023,2785735584,0.98198634,-0.013958699,0.004142546,-0.18839043,-0.99999994,9.624493e-10,-2.4276843e-09,0.00051422976,9
2785786015,2785785642,0.9819947,-0.016099123,0.0032987343,-0.18819219,-0.99999994,9.624493e-10,-2.4276843e-09,0.00051422976,9
2785835997,2785835641,0.9818993,-0.018437369,0.0025505056,-0.1884873,-0.99999994,9.624493e-10,-2.4276843e-09,0.00051422976,9
2785885975,2785885679,0.98191845,-0.018290577,0.001652468,-0.18841186,-0.99999994,9.624493e-10,-2.4276843e-09,0.00051422976,9
2785935959,2785935641,0.98188466,-0.019744432,0.0016512211,-0.18844092,-0.99999994,9.624493e-10,-2.4276843e-09,0.00051422976,9
2785985988,2785985641,0.98183703,-0.021036595,0.002168258,-0.18854381,-0.99999994,9.624493e-10,-2.4276843e-09,0.00051422976,9
2786035984,2786035641,0.9818913,-0.021432467,0.0028944572,-0.18820675,-0.99999994,9.624493e-10,-2.4276843e-09,0.00051422976,9
2786085956,2786085641,0.9819294,-0.021196382,0.0038742672,-0.18801694,-0.99999994,9.624493e-10,-2.4276843e-09,0.00051422976,9
2786135972,2786135641,0.981994,-0.01992049,0.004560527,-0.18780397,-0.99999994,9.624493e-10,-2.4276843e-09,0.00051422976,9
2786186003,2786185660,0.98198336,-0.021962382,0.005961939,-0.18759242,-0.99999994,9.624493e-10,-2.4276843e-09,0.00051422976,9
2786236068,2786235556,0.9819396,-0.022592787,0.008054151,-0.18766862,-0.99999994,9.624493e-10,-2.4276843e-09,0.00051422976,9
2786285963,2786285642,0.9819983,-0.021410728,0.00940837,-0.18743633,-0.99999994,9.624493e-10,-2.4276843e-09,0.00051422976,9
2786335906,2786335642,0.98204386,-0.020728437,0.0105933575,-0.18721083,-0.99999994,9.624493e-10,-2.4276843e-09,0.00051422976,9
2786385972,2786385641,0.9821203,-0.019068522,0.010760299,-0.18697725,-0.99999994,9.624493e-10,-2.4276843e-09,0.00051422976,9
2786430988,2786430641,0.9821462,-0.019974705,0.010894288,-0.18673834,-0.99999994,9.624493e-10,-2.4276843e-09,0.00051422976,9
2786485967,2786485641,0.98213613,-0.020636838,0.011165126,-0.18670344,-0.99999994,9.624493e-10,-2.4276843e-09,0.00051422976,9
2786535987,2786535641,0.98215514,-0.020446632,0.012285756,-0.18655376,-0.99999994,9.624493e-10,-2.4276843e-09,0.00051422976,9
2786586102,2786585680,0.98220146,-0.019551618,0.013684757,-0.18630853,-0.99999994,9.624493e-10,-2.4276843e-09,0.00051422976,9
2786635908,2786635517,0.9822191,-0.017638199,0.014785896,-0.18632239,-0.99999994,9.624493e-10,-2.4276843e-09,0.00051422976,9
2786685965,2786685642,0.9822283,-0.019072076,0.014966885,-0.186118,-0.99999994,9.624493e-10,-2.4276843e-09,0.00051422976,9
2786736007,2786735640,0.982248,-0.02125003,0.015577113,-0.18572763,-0.99999994,9.624493e-10,-2.4276843e-09,0.00051422976,9
2786785994,2786785516,0.98225427,-0.023373088,0.016585642,-0.18535143,-0.99999994,9.624493e-10,-2.4276843e-09,0.00051422976,9
2786835982,2786835641,0.9823139,-0.024645135,0.017299604,-0.18480502,-0.99999994,9.624493e-10,-2.4276843e-09,0.00051422976,9
2786889748,2786885842,0.9823668,-0.026805574,0.017352823,-0.18421693,-0.99999994,9.624493e-10,-2.4276843e-09,0.00051422976,9
2786936023,2786935555,0.98240477,-0.027389778,0.017963221,-0.18386938,-0.99999994,9.624493e-10,-2.4276843e-09,0.00051422976,9
2786986047,2786985642,0.9824529,-0.026140237,0.019607216,-0.18362616,-0.99999994,9.624493e-10,-2.4276843e-09,0.00051422976,9
2787039773,2787035823,0.982447,-0.023122044,0.021750098,-0.18382092,-0.99999994,9.624493e-10,-2.4276843e-09,0.00051422976,9
2787085972,2787085641,0.98248327,-0.022534624,0.022532573,-0.18360625,-0.99999994,9.624493e-10,-2.4276843e-09,0.00051422976,9
2787136028,2787135641,0.98246497,-0.02520396,0.021648336,-0.18346305,-0.99999994,9.624493e-10,-2.4276843e-09,0.00051422976,9
2787186213,2787185783,0.9824182,-0.02734064,0.021040004,-0.18347873,-0.99999994,9.624493e-10,-2.4276843e-09,0.00051422976,9
2787235988,2787235641,0.98247904,-0.026984055,0.020933,-0.18321753,-0.99999994,9.624493e-10,-2.4276843e-09,0.00051422976,9
2787286046,2787285556,0.9824946,-0.026390605,0.020878963,-0.18322639,-0.99999994,9.624493e-10,-2.4276843e-09,0.00051422976,9
2787336153,2787335761,0.98252183,-0.024701856,0.021195225,-0.18327978,-0.99999994,9.624493e-10,-2.4276843e-09,0.00051422976,9
2787385991,2787385641,0.98253447,-0.024967652,0.021298358,-0.18316428,-0.99999994,9.624493e-10,-2.4276843e-09,0.00051422976,9
2787436004,2787435641,0.98244697,-0.026331734,0.02140052,-0.18343048,-0.99999994,9.624493e-10,-2.4276843e-09,0.00051422976,9
2787486104,2787485742,0.98246145,-0.024789512,0.02069439,-0.18364827,-0.99999994,9.624493e-10,-2.4276843e-09,0.00051422976,9
2787536045,2787535641,0.98251045,-0.022642184,0.020492814,-0.18368633,-0.99999994,9.624493e-10,-2.4276843e-09,0.00051422976,9
2787586003,2787585642,0.9824237,-0.022311188,0.021000946,-0.18413328,-0.99999994,9.624493e-10,-2.4276843e-09,0.00051422976,9
2787636056,2787635598,0.9823308,-0.024112636,0.021027187,-0.1843981,-0.99999994,9.624493e-10,-2.4276843e-09,0.00051422976,9
2787686015,2787685541,0.9822384,-0.02814311,0.02126417,-0.18429178,-0.99999994,9.624493e-10,-2.4276843e-09,0.00051422976,9
2787736068,2787735641,0.9821987,-0.029208617,0.022404788,-0.18420243,-0.99999994,9.624493e-10,-2.4276843e-09,0.00051422976,9
2787786014,2787785681,0.98222435,-0.028327027,0.023301687,-0.18409207,-0.99999994,9.624493e-10,-2.4276843e-09,0.00051422976,9
2787835979,2787835641,0.9823151,-0.026513759,0.02416781,-0.18376589,-0.99999994,9.624493e-10,-2.4276843e-09,0.00051422976,9
2787886000,2787885640,0.9824395,-0.021744138,0.024766127,-0.18364784,-0.99999994,9.624493e-10,-2.4276843e-09,0.00051422976,9
2787936136,2787935663,0.9824371,-0.021571508,0.02501447,-0.18364772,-0.99999994,9.624493e-10,-2.4276843e-09,0.00051422976,9
2787986028,2787985564,0.98243576,-0.022609284,0.024631986,-0.18358171,-0.99999994,9.624493e-10,-2.4276843e-09,0.00051422976,9
2788036007,2788035641,0.9824319,-0.019777069,0.025588214,-0.18379846,-0.99999994,9.624493e-10,-2.4276843e-09,0.00051422976,9
2788086042,2788085553,0.98240757,-0.017915051,0.02684315,-0.18393993,-0.99999994,9.624493e-10,-2.4276843e-09,0.00051422976,9
2788136003,2788135516,0.9824736,-0.018620456,0.026280278,-0.18359794,-0.99999994,9.624493e-10,-2.4276843e-09,0.00051422976,9
2788186002,2788185640,0.9825359,-0.021176605,0.024934495,-0.18317497,-0.99999994,9.624493e-10,-2.4276843e-09,0.00051422976,9
2788236001,2788235640,0.9826608,-0.020781161,0.023998594,-0.18267456,-0.99999994,9.624493e-10,-2.4276843e-09,0.00051422976,9
2788286015,2788285640,0.98274934,-0.02374382,0.022729192,-0.18199842,-0.99999994,9.624493e-10,-2.4276843e-09,0.00051422976,9
2788336061,2788335683,0.98277926,-0.025557032,0.020963265,-0.18180324,-0.99999994,9.624493e-10,-2.4276843e-09,0.00051422976,9
2788385986,2788385516,0.9828969,-0.02585538,0.0202174,-0.18120822,-0.99999994,9.624493e-10,-2.4276843e-09,0.00051422976,9
2788435982,2788435641,0.98307025,-0.026396224,0.01981116,-0.18023254,-0.99999994,9.624493e-10,-2.4276843e-09,0.00051422976,9
2788486006,2788485666,0.9833376,-0.025035657,0.01895242,-0.17905654,-0.99999994,9.624493e-10,-2.4276843e-09,0.00051422976,9
2788535991,2788535516,0.9836875,-0.022858087,0.016750244,-0.1776398,-0.99999994,9.624493e-10,-2.4276843e-09,0.00051422976,9
2788585972,2788585641,0.9840069,-0.019022584,0.014980008,-0.1764773,-0.99999994,9.624493e-10,-2.4276843e-09,0.00051422976,9
2788640987,2788640516,0.98429406,-0.018273378,0.014308509,-0.17500444,-0.99999994,9.624493e-10,-2.4276843e-09,0.00051422976,9
2788686039,2788685555,0.98444635,-0.019745367,0.0135713,-0.17404446,-0.99999994,9.624493e-10,-2.4276843e-09,0.00051422976,9
2788735976,2788735641,0.98463255,-0.02159536,0.012227759,-0.17286709,-0.99999994,9.624493e-10,-2.4276843e-09,0.00051422976,9
2788785958,2788785641,0.9847899,-0.02107479,0.011756867,-0.17206527,-0.99999994,9.624493e-10,-2.4276843e-09,0.00051422976,9
2788836006,2788835641,0.98495114,-0.019674374,0.011777391,-0.17130573,-0.99999994,9.624493e-10,-2.4276843e-09,0.00051422976,9
2788885983,2788885641,0.98506886,-0.017026436,0.012798236,-0.17083801,-0.99999994,9.624493e-10,-2.4276843e-09,0.00051422976,9
2788935974,2788935641,0.985151,-0.013967488,0.0146502275,-0.17049314,-0.99999994,9.624493e-10,-2.4276843e-09,0.00051422976,9
2788985985,2788985642,0.98518723,-0.012324603,0.016230997,-0.170267,-0.99999994,9.624493e-10,-2.4276843e-09,0.00051422976,9
2789035995,2789035555,0.98514426,-0.013311488,0.017000627,-0.17036602,-0.99999994,9.624493e-10,-2.4276843e-09,0.00051422976,9
2789081133,2789080544,0.985073,-0.014210836,0.017630434,-0.17064145,-0.99999994,9.624493e-10,-2.4276843e-09,0.00051422976,9
2789135971,2789135640,0.9850482,-0.015077894,0.018567506,-0.17061076,-0.99999994,9.624493e-10,-2.4276843e-09,0.00051422976,9
2789186008,2789185538,0.9849745,-0.018599467,0.019384293,-0.17059769,-0.99999994,9.624493e-10,-2.4276843e-09,0.00051422976,9
2789236030,2789235665,0.9848905,-0.02027499,0.019950936,-0.170826,-0.99999994,9.624493e-10,-2.4276843e-09,0.00051422976,9
2789286004,2789285641,0.9848345,-0.02203397,0.020353844,-0.17088397,-0.99999994,9.624493e-10,-2.4276843e-09,0.00051422976,9
2789335982,2789335517,0.9847638,-0.024658827,0.02075749,-0.17088431,-0.99999994,9.624493e-10,-2.4276843e-09,0.00051422976,9
2789380964,2789380517,0.98469007,-0.02581147,0.021522203,-0.17104438,-0.99999994,9.624493e-10,-2.4276843e-09,0.00051422976,9
2789435999,2789435641,0.9845688,-0.027022528,0.02260371,-0.17141558,-0.99999994,9.624493e-10,-2.4276843e-09,0.00051422976,9
2789485966,2789485642,0.9845087,-0.02555745,0.023424493,-0.17187457,-0.99999994,9.624493e-10,-2.4276843e-09,0.00051422976,9
2789539800,2789535837,0.9844441,-0.024489306,0.024377078,-0.17226726,-0.99999994,9.624493e-10,-2.4276843e-09,0.00051422976,9
2789585993,2789585641,0.98441905,-0.022220848,0.024189157,-0.17274344,-0.99999994,9.624493e-10,-2.4276843e-09,0.00051422976,9
2789636007,2789635641,0.9843316,-0.020978495,0.025092922,-0.17326744,-0.99999994,9.624493e-10,-2.4276843e-09,0.00051422976,9
2789689716,2789685930,0.98428446,-0.022135876,0.025855184,-0.17327932,-0.99999994,9.624493e-10,-2.4276843e-09,0.00051422976,9
2789736032,2789735558,0.9841904,-0.024375392,0.026652781,-0.17339215,-0.99999994,9.624493e-10,-2.4276843e-09,0.00051422976,9
2789786022,2789785660,0.9840851,-0.025387904,0.02750468,-0.17371136,-0.99999994,9.624493e-10,-2.4276843e-09,0.00051422976,9
2789839826,2789835846,0.9840159,-0.02733843,0.027424445,-0.1738198,-0.99999994,9.624493e-10,-2.4276843e-09,0.00051422976,9
2789885979,2789885641,0.98393095,-0.028977321,0.027291894,-0.17405611,-0.99999994,9.624493e-10,-2.4276843e-09,0.00051422976,9
2789935975,2789935642,0.9839432,-0.029153947,0.026296115,-0.17411022,-0.99999994,9.624493e-10,-2.4276843e-09,0.00051422976,9
2789986094,2789985789,0.98393625,-0.028463932,0.025647344,-0.17436022,-0.99999994,9.624493e-10,-2.4276843e-09,0.00051422976,9
2790036003,2790035641,0.9839675,-0.028494162,0.025503892,-0.17420043,-0.99999994,9.624493e-10,-2.4276843e-09,0.00051422976,9
2790086022,2790085683,0.98395395,-0.028922163,0.024701497,-0.17432122,-0.99999994,9.624493e-10,-2.4276843e-09,0.00051422976,9
2790130962,2790130641,0.9839362,-0.030388886,0.02416759,-0.17424716,-0.99999994,9.624493e-10,-2.4276843e-09,0.00051422976,9
2790185928,2790185640,0.9837851,-0.03235115,0.024105793,-0.17475489,-0.99999994,9.624493e-10,-2.4276843e-09,0.00051422976,9
2790236000,2790235640,0.98378456,-0.03249362,0.024182633,-0.17472069,-0.99999994,9.624493e-10,-2.4276843e-09,0.00051422976,9
2790286092,2790285588,0.9837788,-0.031572342,0.024231747,-0.17491552,-0.99999994,9.624493e-10,-2.4276843e-09,0.00051422976,9
2790335914,2790335641,0.9838184,-0.030643258,0.023771137,-0.17492135,-0.99999994,9.624493e-10,-2.4276843e-09,0.00051422976,9
2790386063,2790385552,0.983829,-0.029670246,0.02281375,-0.17515604,-0.99999994,9.624493e-10,-2.4276843e-09,0.00051422976,9
2790436054,2790435581,0.98390615,-0.027815903,0.021948008,-0.17513768,-0.99999994,9.624493e-10,-2.4276843e-09,0.00051422976,9
2790485968,2790485641,0.983882,-0.026896084,0.022745913,-0.17531556,-0.99999994,9.624493e-10,-2.4276843e-09,0.00051422976,9
2790535987,2790535641,0.9838417,-0.028213825,0.02323241,-0.17527045,-0.99999994,9.624493e-10,-2.4276843e-09,0.00051422976,9
2790586002,2790585537,0.98369974,-0.029787945,0.02335948,-0.17578958,-0.99999994,9.624493e-10,-2.4276843e-09,0.00051422976,9
2790635956,2790635641,0.98357904,-0.03119966,0.022024108,-0.17639117,-0.99999994,9.624493e-10,-2.4276843e-09,0.00051422976,9
2790686001,2790685641,0.98354346,-0.031938784,0.02073252,-0.1766138,-0.99999994,9.624493e-10,-2.4276843e-09,0.00051422976,9
2790736034,2790735589,0.9835072,-0.031386774,0.020014321,-0.17699665,-0.99999994,9.624493e-10,-2.4276843e-09,0.00051422976,9
2790786024,2790785558,0.9834873,-0.031589404,0.020069277,-0.17706552,-0.99999994,9.624493e-10,-2.4276843e-09,0.00051422976,9
2790835990,2790835641,0.98341304,-0.031849697,0.02124238,-0.1772941,-0.99999994,9.624493e-10,-2.4276843e-09,0.00051422976,9
2790886045,2790885682,0.98334265,-0.032107998,0.02244851,-0.17748913,-0.99999994,9.624493e-10,-2.4276843e-09,0.00051422976,9
2790935952,2790935641,0.9833208,-0.030079456,0.023162669,-0.17787373,-0.99999994,9.624493e-10,-2.4276843e-09,0.00051422976,9
2790985999,2790985641,0.9833461,-0.027179562,0.023257643,-0.17818792,-0.99999994,9.624493e-10,-2.4276843e-09,0.00051422976,9
2791035961,2791035641,0.9831998,-0.023691252,0.022762997,-0.1795518,-0.99999994,9.624493e-10,-2.4276843e-09,0.00051422976,9
2791085993,2791085516,0.98245716,-0.023282347,0.02126402,-0.18380319,-0.99999994,9.624493e-10,-2.4276843e-09,0.00051422976,9
2791136041,2791135681,0.98128283,-0.027050022,0.015254098,-0.19005205,-0.99999994,9.624493e-10,-2.4276843e-09,0.00051422976,9
2791185991,2791185642,0.98001903,-0.034117185,0.0057401005,-0.19587213,-0.99999994,9.624493e-10,-2.4276843e-09,0.00051422976,9
2791235966,2791235640,0.97858864,-0.043169975,-0.006132633,-0.20115466,-0.99999994,9.624493e-10,-2.4276843e-09,0.00051422976,9
2791285967,2791285643,0.9770632,-0.052732848,-0.019202035,-0.20542178,-0.99999994,9.624493e-10,-2.4276843e-09,0.00051422976,9
2791335930,2791335641,0.9754954,-0.06062544,-0.030932218,-0.20922874,-0.99999994,9.624493e-10,-2.4276843e-09,0.00051422976,9
2791386003,2791385662,0.9742217,-0.06631486,-0.040438727,-0.21179956,-0.99999994,9.624493e-10,-2.4276843e-09,0.00051422976,9
2791435980,2791435641,0.9730649,-0.06967447,-0.050513104,-0.21386634,-0.99999994,9.624493e-10,-2.4276843e-09,0.00051422976,9
2791486024,2791485558,0.97198904,-0.070070274,-0.062536515,-0.21544537,-0.99999994,9.624493e-10,-2.4276843e-09,0.00051422976,9
2791535994,2791535640,0.9708975,-0.07003545,-0.07648599,-0.21587735,-0.99999994,9.624493e-10,-2.4276843e-09,0.00051422976,9
2791589739,2791585802,0.96968275,-0.06909263,-0.09049734,-0.21622193,-0.99999994,9.624493e-10,-2.4276843e-09,0.00051422976,9
2791635963,2791635516,0.96877605,-0.06405016,-0.10472285,-0.21541509,-0.99999994,9.624493e-10,-2.4276843e-09,0.00051422976,9
2791685947,2791685641,0.967423,-0.061085414,-0.11900149,-0.21494164,-0.99999994,9.624493e-10,-2.4276843e-09,0.00051422976,9
2791730987,2791730667,0.9662699,-0.05882368,-0.13101943,-0.21376672,-0.99999994,9.624493e-10,-2.4276843e-09,0.00051422976,9
2791785967,2791785517,0.96514016,-0.057455666,-0.14238326,-0.21196799,-0.99999994,9.624493e-10,-2.4276843e-09,0.00051422976,9
2791836032,2791835680,0.9643413,-0.059316713,-0.14792907,-0.21129276,-0.99999994,9.624493e-10,-2.4276843e-09,0.00051422976,9
2791880932,2791880641,0.9638961,-0.05962999,-0.15131457,-0.21083775,-0.99999994,9.624493e-10,-2.4276843e-09,0.00051422976,9
2791936040,2791935642,0.96380323,-0.055851635,-0.15528293,-0.20940681,-0.99999994,9.624493e-10,-2.4276843e-09,0.00051422976,9
2791986119,2791985643,0.96386623,-0.053811003,-0.15636458,-0.2088454,-0.99999994,9.624493e-10,-2.4276843e-09,0.00051422976,9
2792030981,2792030515,0.96405894,-0.053616617,-0.15555453,-0.20861109,-0.99999994,9.624493e-10,-2.4276843e-09,0.00051422976,9
2792085991,2792085642,0.9642998,-0.052457638,-0.15427624,-0.20874144,-0.99999994,9.624493e-10,-2.4276843e-09,0.00051422976,9
2792135994,2792135641,0.9645908,-0.049873263,-0.15297846,-0.20898578,-0.99999994,9.624493e-10,-2.4276843e-09,0.00051422976,9
2792181016,2792180515,0.96471953,-0.04849101,-0.15263873,-0.20896536,-0.99999994,9.624493e-10,-2.4276843e-09,0.00051422976,9
2792235984,2792235642,0.9644551,-0.049837727,-0.15250665,-0.20996287,-0.99999994,9.624493e-10,-2.4276843e-09,0.00051422976,9
2792286019,2792285641,0.9642681,-0.04919571,-0.15286149,-0.21071379,-0.99999994,9.624493e-10,-2.4276843e-09,0.00051422976,9
2792336223,2792335841,0.96422285,-0.04931133,-0.15193966,-0.21155894,-0.99999994,9.624493e-10,-2.4276843e-09,0.00051422976,9
2792385999,2792385642,0.9641394,-0.050041426,-0.15103336,-0.21241505,-0.99999994,9.624493e-10,-2.4276843e-09,0.00051422976,9
2792435996,2792435641,0.9636963,-0.051747948,-0.15189901,-0.2133969,-0.99999994,9.624493e-10,-2.4276843e-09,0.00051422976,9
2792486156,2792485656,0.9629642,-0.054288052,-0.15355042,-0.21488418,-0.99999994,9.624493e-10,-2.4276843e-09,0.00051422976,9
2792536077,2792535556,0.9626179,-0.05286021,-0.15519533,-0.2156087,-0.99999994,9.624493e-10,-2.4276843e-09,0.00051422976,9
2792585992,2792585640,0.962616,-0.050233036,-0.15509982,-0.21631265,-0.99999994,9.624493e-10,-2.4276843e-09,0.00051422976,9
2792630983,2792630641,0.96260107,-0.050453503,-0.15459768,-0.21668692,-0.99999994,9.624493e-10,-2.4276843e-09,0.00051422976,9
2792686019,2792685641,0.9624196,-0.051029053,-0.15414788,-0.2176762,-0.99999994,9.624493e-10,-2.4276843e-09,0.00051422976,9
2792736011,2792735641,0.96221256,-0.05210044,-0.15274851,-0.21931837,-0.99999994,9.624493e-10,-2.4276843e-09,0.00051422976,9
2792786067,2792785610,0.9616639,-0.05647572,-0.15215197,-0.22104958,-0.99999994,9.624493e-10,-2.4276843e-09,0.00051422976,9
2792836002,2792835532,0.9609883,-0.057637762,-0.153982,-0.22241649,-0.99999994,9.624493e-10,-2.4276843e-09,0.00051422976,9
2792886061,2792885683,0.9606823,-0.055902578,-0.15455453,-0.2237799,-0.99999994,9.624493e-10,-2.4276843e-09,0.00051422976,9
2792935993,2792935587,0.96030915,-0.053735282,-0.15639974,-0.22462894,-0.99999994,9.624493e-10,-2.4276843e-09,0.00051422976,9
2792985986,2792985517,0.95968026,-0.05331355,-0.15911894,-0.22550526,-0.99999994,9.624493e-10,-2.4276843e-09,0.00051422976,9
2793035996,2793035641,0.95865196,-0.056304958,-0.16211873,-0.22701052,-0.99999994,9.624493e-10,-2.4276843e-09,0.00051422976,9
2793086089,2793085581,0.95753014,-0.056093153,-0.16688398,-0.22834073,-0.99999994,9.624493e-10,-2.4276843e-09,0.00051422976,9
2793135964,2793135641,0.95667505,-0.0552328,-0.17122155,-0.22892213,-0.99999994,9.624493e-10,-2.4276843e-09,0.00051422976,9
2793185989,2793185641,0.9559796,-0.05614098,-0.17443776,-0.22917823,-0.99999994,9.624493e-10,-2.4276843e-09,0.00051422976,9
2793235996,2793235554,0.9560925,-0.05717095,-0.17400868,-0.22877838,-0.99999994,9.624493e-10,-2.4276843e-09,0.00051422976,9
2793286016,2793285641,0.9570282,-0.0570301,-0.16921759,-0.22849497,-0.99999994,9.624493e-10,-2.4276843e-09,0.00051422976,9
2793335982,2793335641,0.95817226,-0.06067182,-0.16050331,-0.22904922,-0.99999994,9.624493e-10,-2.4276843e-09,0.00051422976,9
2793385965,2793385516,0.9589398,-0.061563224,-0.15499796,-0.229391,-0.99999994,9.624493e-10,-2.4276843e-09,0.00051422976,9
2793436025,2793435684,0.95982796,-0.0630061,-0.14956897,-0.228888,-0.99999994,9.624493e-10,-2.4276843e-09,0.00051422976,9
2793486006,2793485641,0.96102667,-0.06392608,-0.14150433,-0.22873098,-0.99999994,9.624493e-10,-2.4276843e-09,0.00051422976,9
2793535960,2793535516,0.9627566,-0.060981054,-0.13240464,-0.22770636,-0.99999994,9.624493e-10,-2.4276843e-09,0.00051422976,9
2793586008,2793585557,0.96501577,-0.052941576,-0.12119375,-0.22639295,-0.99999994,9.624493e-10,-2.4276843e-09,0.00051422976,9
2793636014,2793635641,0.9674287,-0.043724228,-0.108676545,-0.22440885,-0.99999994,9.624493e-10,-2.4276843e-09,0.00051422976,9
2793685958,2793685641,0.9696339,-0.032825373,-0.09569118,-0.22265665,-0.99999994,9.624493e-10,-2.4276843e-09,0.00051422976,9
2793735962,2793735643,0.9712587,-0.023010258,-0.08344753,-0.22172846,-0.99999994,9.624493e-10,-2.4276843e-09,0.00051422976,9
2793785983,2793785649,0.97272563,-0.013682192,-0.07100512,-0.22039959,-0.99999994,9.624493e-10,-2.4276843e-09,0.00051422976,9
2793836010,2793835642,0.973917,-0.006848365,-0.057395395,-0.21941908,-0.99999994,9.624493e-10,-2.4276843e-09,0.00051422976,9
2793885966,2793885641,0.9747992,-0.003846276,-0.043683108,-0.21873131,-0.99999994,9.624493e-10,-2.4276843e-09,0.00051422976,9
2793936041,2793935683,0.9754008,-0.0027979484,-0.030285755,-0.21833047,-0.99999994,9.624493e-10,-2.4276843e-09,0.00051422976,9
2793985981,2793985641,0.97575694,-0.0029396724,-0.016163256,-0.21823964,-0.99999994,9.624493e-10,-2.4276843e-09,0.00051422976,9
2794036040,2794035516,0.97594213,-0.006389601,-0.0017298952,-0.21792953,-0.99999994,9.624493e-10,-2.4276843e-09,0.00051422976,9
2794085988,2794085641,0.97575694,-0.011563698,0.011283073,-0.21826,-0.99999994,9.624493e-10,-2.4276843e-09,0.00051422976,9
2794135980,2794135641,0.97563654,-0.014356995,0.021611547,-0.21785356,-0.99999994,9.624493e-10,-2.4276843e-09,0.00051422976,9
2794186001,2794185641,0.97546184,-0.016122378,0.031528607,-0.2173021,-0.99999994,9.624493e-10,-2.4276843e-09,0.00051422976,9
2794236000,2794235641,0.9751727,-0.014957074,0.04243444,-0.21682714,-0.99999994,9.624493e-10,-2.4276843e-09,0.00051422976,9
2794286031,2794285555,0.9745732,-0.014882564,0.053908933,-0.21697845,-0.99999994,9.624493e-10,-2.4276843e-09,0.00051422976,9
2794335974,2794335641,0.9739842,-0.01645432,0.062084403,-0.21732385,-0.99999994,9.624493e-10,-2.4276843e-09,0.00051422976,9
2794389743,2794385903,0.97336125,-0.0185764,0.068972126,-0.21786615,-0.99999994,9.624493e-10,-2.4276843e-09,0.00051422976,9
2794436008,2794435641,0.9725014,-0.01879822,0.078534976,-0.2184492,-0.99999994,9.624493e-10,-2.4276843e-09,0.00051422976,9
2794485996,2794485641,0.9713147,-0.020258218,0.09213716,-0.21828459,-0.99999994,9.624493e-10,-2.4276843e-09,0.00051422976,9
2794531023,2794530680,0.96982086,-0.023093803,0.104819365,-0.21892276,-0.99999994,9.624493e-10,-2.4276843e-09,0.00051422976,9
2794586037,2794585540,0.96892357,-0.022111857,0.11376594,-0.21853054,-0.99999994,9.624493e-10,-2.4276843e-09,0.00051422976,9
